00:00:36.073;I;$POSMST,Start NMEA Logger,V 0.1.15*06
00:00:36.187;I;$POSMCFG,4,255,0,5,ffff,65535*70
00:00:36.190;A;$GPRMC,155529.00,A,4935.37053,N,01104.13659,E,0.336,,200824,,,A*70
00:00:36.192;B;$SDDPT,,0.00,100.0*4A
00:00:36.195;A;$GPVTG,,T,,M,0.336,N,0.622,K,A*23
00:00:36.197;B;$SDDBT,,f,,M,,F*28
00:00:36.195;I;$POSMVCC,5073,4873*5E
00:00:36.203;B;$YXMTW,27.15,C*23
00:00:36.202;A;$GPGGA,155529.00,4935.37$GPRMC,155532.00,A,4935.36999,N,01104.13570,E,0.051,,200
00:00:36.431;A;824,,,A*7E
00:00:36.446;A;$GPVTG,,T,,M,0.051,N,0.094,K,A*2A
00:00:36.484;A;$GPGGA,155532.00,4935.36999,N,01104.13570,E,1,03,3.64,449.9,M,47.0,M,,*5B
00:00:36.559;A;$GPGSA,A,2,30,07,09,,,,,,,,,,3.78,3.64,1.00*02
00:00:36.610;A;$GPGSV,2,1,07,05,,,41,07,54,062,33,09,21,098,33,11,,,26*70
00:00:36.673;A;$GPGSV,2,2,07,13,,,36,20,,,35,30,83,141,31*43
00:00:36.206;B;$SDDPT,,0.00,100.$SDDPT,,0.00,100.0*4A
00:00:36.720;A;$GPGLL,4935.36999,N,01104.13570,E,155532.00,A,A*6F
00:00:36.730;B;$SDDBT,,f,,M,,F*28
00:00:36.777;B;$YXMTW,27.14,C*22
00:00:37.197;I;$POSMVCC,5073,4873*5E
00:00:37.372;A;$GPRMC,155533.00,A,4935.36997,N,01104.13547,E,0.318,,200824,,,A*7B
00:00:37.444;A;$GPVTG,,T,,M,0.318,N,0.589,K,A*2D
00:00:37.481;A;$GPGGA,155533.00,4935.36997,N,01104.13547,E,1,03,3.64,450.0,M,47.0,M,,*51
00:00:37.560;A;$GPGSA,A,2,30,07,09,,,,,,,,,,3.78,3.64,1.00*02
00:00:37.609;A;$GPGSV,2,1,07,05,,,42,07,54,062,34,09,21,098,33,11,,,26*74
00:00:37.670;A;$GPGSV,2,2,07,13,,,36,20,,,34,30,83,141,31*42
00:00:37.672;B;$SDDPT,,0.00,100.0*4A
00:00:37.721;A;$GPGLL,4935.36997,N,01104.13547,E,155533.00,A,A*64
00:00:37.728;B;$SDDBT,,f,,M,,F*28
00:00:37.776;B;$YXMTW,27.13,C*25
00:00:38.199;I;$POSMVCC,5073,4873*5E
00:00:38.459;A;$GPRMC,155534.00,A,4935.39098,N,01104.04772,E,0.321,,200824,,,A*7D
00:00:38.532;A;$GPVTG,,T,,M,0.321,N,0.594,K,A*2B
00:00:38.567;A;$GPGGA,155534.00,4935.39098,N,01104.04772,E,1,05,3.12,294.0,M,47.0,M,,*54
00:00:38.646;A;$GPGSA,A,3,30,05,07,09,13,,,,,,,,3.82,3.12,2.20*01
00:00:38.675;B;$SDDPT,,0.00,100.0*4A
00:00:38.701;A;$GPGSV,2,1,07,05,53,292,44,07,54,062,33,09,21,098,33,11,,,26*4A
00:00:38.731;B;$SDDBT,,f,,M,,F*28
00:00:38.774;B;$YXMTW,27.13,C*25
00:00:38.769;A;$GPGSV,2,2,07,13,36,280,38,20,,,38,30,83,141,33*7D
00:00:38.823;A;$GPGLL,4935.39098,N,01104.04772,E,155534.00,A,A*68
00:00:39.201;I;$POSMVCC,5073,4873*5E
00:00:39.376;A;$GPRMC,155535.00,A,4935.39229,N,01104.04843,E,0.125,,200824,,,A*7F
00:00:39.448;A;$GPVTG,,T,,M,0.125,N,0.232,K,A*26
00:00:39.485;A;$GPGGA,155535.00,4935.39229,N,01104.04843,E,1,05,3.12,294.7,M,47.0,M,,*57
00:00:39.565;A;$GPGSA,A,3,30,05,07,09,13,,,,,,,,3.82,3.12,2.20*01
00:00:39.617;A;$GPGSV,2,1,07,05,53,292,39,07,54,062,32,09,21,098,32,11,,,26*40
00:00:39.672;B;$SDDPT,,0.00,100.0*4A
00:00:39.685;A;$GPGSV,2,2,07,13,36,280,31,20,,,37,30,83,141,33*7B
00:00:39.726;B;$SDDBT,,f,,M,,F*28
00:00:39.740;A;$GPGLL,4935.39229,N,01104.04843,E,155535.00,A,A*6C
00:00:39.775;B;$YXMTW,27.13,C*25
00:00:40.204;I;$POSMVCC,5073,4873*5E
00:00:40.376;A;$GPRMC,155536.00,A,4935.39553,N,01104.05006,E,0.062,,200824,,,A*7C
00:00:40.452;A;$GPVTG,,T,,M,0.062,N,0.114,K,A*23
00:00:40.486;A;$GPGGA,155536.00,4935.39553,N,01104.05006,E,1,05,3.12,295.3,M,47.0,M,,*53
00:00:40.564;A;$GPGSA,A,3,30,05,07,09,13,,,,,,,,3.82,3.12,2.20*01
00:00:40.619;A;$GPGSV,2,1,07,05,53,292,43,07,54,062,37,09,21,098,31,11,,,24*49
00:00:40.674;B;$SDDPT,,0.00,100.0*4A
00:00:40.686;A;$GPGSV,2,2,07,13,36,280,31,20,,,34,30,83,141,29*73
00:00:40.728;B;$SDDBT,,f,,M,,F*28
00:00:40.740;A;$GPGLL,4935.39553,N,01104.05006,E,155536.00,A,A*6D
00:00:40.774;B;$YXMTW,27.12,C*24
00:00:41.204;I;$POSMVCC,5073,4873*5E
00:00:41.375;A;$GPRMC,155537.00,A,4935.39609,N,01104.05026,E,0.216,,200824,,,A*72
00:00:41.447;A;$GPVTG,,T,,M,0.216,N,0.400,K,A*22
00:00:41.484;A;$GPGGA,155537.00,4935.39609,N,01104.05026,E,1,05,3.12,295.4,M,47.0,M,,*5B
00:00:41.563;A;$GPGSA,A,3,30,05,07,09,13,,,,,,,,3.82,3.12,2.20*01
00:00:41.617;A;$GPGSV,2,1,07,05,53,292,43,07,54,062,33,09,21,098,30,11,,,22*4A
00:00:41.676;B;$SDDPT,,0.00,100.0*4A
00:00:41.684;A;$GPGSV,2,2,07,13,36,280,32,20,,,31,30,83,141,24*78
00:00:41.730;B;$SDDBT,,f,,M,,F*28
00:00:41.739;A;$GPGLL,4935.39609,N,01104.05026,E,155537.00,A,A*62
00:00:41.776;B;$YXMTW,27.12,C*24
00:00:42.205;I;$POSMVCC,5073,4873*5E
00:00:42.376;A;$GPRMC,155538.00,A,4935.39745,N,01104.05047,E,0.991,,200824,,,A*77
00:00:42.449;A;$GPVTG,,T,,M,0.991,N,1.836,K,A*2E
00:00:42.486;A;$GPGGA,155538.00,4935.39745,N,01104.05047,E,1,05,3.12,295.6,M,47.0,M,,*58
00:00:42.564;A;$GPGSA,A,3,30,05,07,09,13,,,,,,,,3.82,3.12,2.20*01
00:00:42.616;A;$GPGSV,2,1,07,05,53,292,35,07,54,062,34,09,21,098,29,11,,,21*47
00:00:42.672;B;$SDDPT,,0.00,100.0*4A
00:00:42.686;A;$GPGSV,2,2,07,13,36,280,33,20,,,37,30,83,141,35*7F
00:00:42.727;B;$SDDBT,,f,,M,,F*28
00:00:42.739;A;$GPGLL,4935.39745,N,01104.05047,E,155538.00,A,A*63
00:00:42.774;B;$YXMTW,27.12,C*24
00:00:43.207;I;$POSMVCC,5073,4873*5E
00:00:43.371;A;$GPRMC,155539.00,A,4935.39951,N,01104.05075,E,0.155,,200824,,,A*7C
00:00:43.445;A;$GPVTG,,T,,M,0.155,N,0.288,K,A*20
00:00:43.482;A;$GPGGA,155539.00,4935.39951,N,01104.05075,E,1,05,3.12,294.9,M,47.0,M,,*5D
00:00:43.559;A;$GPGSA,A,3,30,05,07,09,13,,,,,,,,3.82,3.12,2.20*01
00:00:43.614;A;$GPGSV,2,1,07,05,53,292,31,07,54,062,37,09,21,098,21,11,,,22*4B
00:00:43.675;B;$SDDPT,,0.00,100.0*4A
00:00:43.681;A;$GPGSV,2,2,07,13,36,280,36,20,,,39,30,83,141,39*78
00:00:43.728;B;$SDDBT,,f,,M,,F*28
00:00:43.735;A;$GPGLL,4935.39951,N,01104.05075,E,155539.00,A,A*68
00:00:43.776;B;$YXMTW,27.11,C*27
00:00:44.207;I;$POSMVCC,5073,4873*5E
00:00:44.372;A;$GPRMC,155540.00,A,4935.39749,N,01104.05038,E,1.075,,200824,,,A*7E
00:00:44.448;A;$GPVTG,,T,,M,1.075,N,1.992,K,A*23
00:00:44.483;A;$GPGGA,155540.00,4935.39749,N,01104.05038,E,1,05,3.12,297.5,M,47.0,M,,*52
00:00:44.561;A;$GPGSA,A,3,30,05,07,09,13,,,,,,,,3.82,3.12,2.20*01
00:00:44.615;A;$GPGSV,2,1,07,05,53,292,37,07,54,062,34,09,21,098,30,11,,,23*4F
00:00:44.670;B;$SDDPT,,0.00,100.0*4A
00:00:44.683;A;$GPGSV,2,2,07,13,36,280,40,20,,,45,30,83,141,40*7C
00:00:44.727;B;$SDDBT,,f,,M,,F*28
00:00:44.737;A;$GPGLL,4935.39749,N,01104.05038,E,155540.00,A,A*68
00:00:44.776;B;$YXMTW,27.11,C*27
00:00:45.208;I;$POSMVCC,5073,4873*5E
00:00:45.372;A;$GPRMC,155541.00,A,4935.39671,N,01104.05030,E,1.608,196.80,200824,,,A*69
00:00:45.453;A;$GPVTG,196.80,T,,M,1.608,N,2.978,K,A*30
00:00:45.494;A;$GPGGA,155541.00,4935.39671,N,01104.05030,E,1,05,3.12,297.3,M,47.0,M,,*57
00:00:45.573;A;$GPGSA,A,3,30,05,07,09,13,,,,,,,,3.82,3.12,2.20*01
00:00:45.627;A;$GPGSV,2,1,07,05,53,292,39,07,54,062,32,09,21,098,30,11,,,22*46
00:00:45.673;B;$SDDPT,,0.00,100.0*4A
00:00:45.694;A;$GPGSV,2,2,07,13,36,280,30,20,,,46,30,83,141,26*78
00:00:45.730;B;$SDDBT,,f,,M,,F*28
00:00:45.749;A;$GPGLL,4935.39671,N,01104.05030,E,155541.00,A,A*6B
00:00:45.774;B;$YXMTW,27.11,C*27
00:00:46.211;I;$POSMVCC,5073,4873*5E
00:00:46.374;A;$GPRMC,155542.00,A,4935.39618,N,01104.05019,E,1.693,189.17,200824,,,A*6C
00:00:46.453;A;$GPVTG,189.17,T,,M,1.693,N,3.136,K,A*31
00:00:46.496;A;$GPGGA,155542.00,4935.39618,N,01104.05019,E,1,05,3.12,297.2,M,47.0,M,,*51
00:00:46.574;A;$GPGSA,A,3,30,05,07,09,13,,,,,,,,3.82,3.12,2.20*01
00:00:46.630;A;$GPGSV,2,1,08,05,53,292,39,07,54,062,28,09,21,098,22,11,,,23*40
00:00:46.676;B;$SDDPT,,0.00,100.0*4A
00:00:46.696;A;$GPGSV,2,2,08,13,36,280,34,17,,,28,20,,,41,30,83,141,27*79
00:00:46.730;B;$SDDBT,,f,,M,,F*28
00:00:46.758;A;$GPGLL,4935.39618,N,01104.05019,E,155542.00,A,A*6C
00:00:46.777;B;$YXMTW,27.11,C*27
00:00:47.212;I;$POSMVCC,5073,4873*5E
00:00:47.374;A;$GPRMC,155543.00,A,4935.39559,N,01104.04978,E,1.751,,200824,,,A*73
00:00:47.447;A;$GPVTG,,T,,M,1.751,N,3.242,K,A*26
00:00:47.484;A;$GPGGA,155543.00,4935.39559,N,01104.04978,E,1,05,3.12,297.3,M,47.0,M,,*58
00:00:47.560;A;$GPGSA,A,3,30,05,07,09,13,,,,,,,,3.82,3.12,2.20*01
00:00:47.614;A;$GPGSV,2,1,07,05,53,292,42,07,54,062,27,09,21,098,21,11,,,21*4D
00:00:47.673;B;$SDDPT,,0.00,100.0*4A
00:00:47.682;A;$GPGSV,2,2,07,13,36,280,30,20,,,42,30,83,141,32*79
00:00:47.726;B;$SDDBT,,f,,M,,F*28
00:00:47.736;A;$GPGLL,4935.39559,N,01104.04978,E,155543.00,A,A*64
00:00:47.773;B;$YXMTW,27.10,C*26
00:00:48.214;I;$POSMVCC,5073,4873*5E
00:00:48.373;A;$GPRMC,155544.00,A,4935.39547,N,01104.04935,E,0.666,,200824,,,A*76
00:00:48.448;A;$GPVTG,,T,,M,0.666,N,1.233,K,A*26
00:00:48.484;A;$GPGGA,155544.00,4935.39547,N,01104.04935,E,1,05,3.12,297.1,M,47.0,M,,*5B
00:00:48.561;A;$GPGSA,A,3,30,05,07,09,13,,,,,,,,3.82,3.12,2.20*01
00:00:48.615;A;$GPGSV,2,1,07,05,53,292,37,07,54,062,29,09,21,098,23,11,,,21*43
00:00:48.674;B;$SDDPT,,0.00,100.0*4A
00:00:48.683;A;$GPGSV,2,2,07,13,36,280,34,20,,,43,30,83,141,26*79
00:00:48.731;B;$SDDBT,,f,,M,,F*28
00:00:48.740;A;$GPGLL,4935.39547,N,01104.04935,E,155544.00,A,A*65
00:00:48.774;B;$YXMTW,27.10,C*26
00:00:49.214;I;$POSMVCC,5073,4873*5E
00:00:49.372;A;$GPRMC,155545.00,A,4935.39443,N,01104.04855,E,0.579,,200824,,,A*78
00:00:49.445;A;$GPVTG,,T,,M,0.579,N,1.073,K,A*2D
00:00:49.482;A;$GPGGA,155545.00,4935.39443,N,01104.04855,E,1,05,3.12,294.4,M,47.0,M,,*5E
00:00:49.560;A;$GPGSA,A,3,30,05,07,09,13,,,,,,,,3.82,3.12,2.20*01
00:00:49.614;A;$GPGSV,2,1,07,05,53,292,34,07,54,062,20,09,21,098,21,11,,,21*4B
00:00:49.670;B;$SDDPT,,0.00,100.0*4A
00:00:49.684;A;$GPGSV,2,2,07,13,36,280,39,20,,,38,30,83,141,31*7E
00:00:49.725;B;$SDDBT,,f,,M,,F*28
00:00:49.735;A;$GPGLL,4935.39443,N,01104.04855,E,155545.00,A,A*66
00:00:49.774;B;$YXMTW,27.09,C*2E
00:00:50.215;I;$POSMVCC,5073,4873*5E
00:00:50.380;A;$GPRMC,155546.00,A,4935.39487,N,01104.04841,E,0.806,,200824,,,A*73
00:00:50.452;A;$GPVTG,,T,,M,0.806,N,1.493,K,A*22
00:00:50.489;A;$GPGGA,155546.00,4935.39487,N,01104.04841,E,1,05,3.12,295.1,M,47.0,M,,*54
00:00:50.569;A;$GPGSA,A,3,30,05,07,09,13,,,,,,,,3.82,3.12,2.20*01
00:00:50.621;A;$GPGSV,2,1,08,05,53,292,47,07,54,062,23,09,21,098,22,11,,,23*42
00:00:50.673;B;$SDDPT,,0.00,100.0*4A
00:00:50.689;A;$GPGSV,2,2,08,13,36,280,39,20,,,40,22,09,170,,30,83,141,32*42
00:00:50.727;B;$SDDBT,,f,,M,,F*28
00:00:50.755;A;$GPGLL,4935.39487,N,01104.04841,E,155546.00,A,A*68
00:00:50.774;B;$YXMTW,27.09,C*2E
00:00:51.216;I;$POSMVCC,5073,4873*5E
00:00:51.372;A;$GPRMC,155547.00,A,4935.39545,N,01104.04811,E,0.681,,200824,,,A*79
00:00:51.444;A;$GPVTG,,T,,M,0.681,N,1.261,K,A*28
00:00:51.481;A;$GPGGA,155547.00,4935.39545,N,01104.04811,E,1,05,3.28,295.4,M,47.0,M,,*53
00:00:51.558;A;$GPGSA,A,3,30,05,07,09,13,,,,,,,,4.31,3.28,2.80*0D
00:00:51.612;A;$GPGSV,2,1,08,05,53,292,45,07,54,062,26,09,21,098,23,11,,,24*43
00:00:51.677;B;$SDDPT,,0.00,100.0*4A
00:00:51.680;A;$GPGSV,2,2,08,13,36,280,38,20,,,42,22,09,170,,30,83,141,26*44
00:00:51.729;B;$SDDBT,,f,,M,,F*28
00:00:51.746;A;$GPGLL,4935.39545,N,01104.04811,E,155547.00,A,A*63
00:00:51.776;B;$YXMTW,27.09,C*2E
00:00:52.217;I;$POSMVCC,5073,4873*5E
00:00:52.375;A;$GPRMC,155548.00,A,4935.39641,N,01104.04791,E,0.315,,200824,,,A*7E
00:00:52.449;A;$GPVTG,,T,,M,0.315,N,0.584,K,A*2D
00:00:52.484;A;$GPGGA,155548.00,4935.39641,N,01104.04791,E,1,05,3.12,295.4,M,47.0,M,,*55
00:00:52.562;A;$GPGSA,A,3,30,05,07,09,13,,,,,,,,3.82,3.12,2.20*01
00:00:52.617;A;$GPGSV,2,1,08,05,53,292,39,07,54,062,27,09,21,098,24,11,,,22*48
00:00:52.672;B;$SDDPT,,0.00,100.0*4A
00:00:52.684;A;$GPGSV,2,2,08,13,36,280,37,20,,,40,22,09,170,,30,83,141,32*4C
00:00:52.727;B;$SDDBT,,f,,M,,F*28
00:00:52.752;A;$GPGLL,4935.39641,N,01104.04791,E,155548.00,A,A*6C
00:00:52.771;B;$YXMTW,27.08,C*2F
00:00:53.218;I;$POSMVCC,5073,4873*5E
00:00:53.374;A;$GPRMC,155549.00,A,4935.39736,N,01104.04686,E,2.406,,200824,,,A*7E
00:00:53.447;A;$GPVTG,,T,,M,2.406,N,4.456,K,A*20
00:00:53.483;A;$GPGGA,155549.00,4935.39736,N,01104.04686,E,1,05,3.12,296.5,M,47.0,M,,*50
00:00:53.562;A;$GPGSA,A,3,30,05,07,09,13,,,,,,,,3.82,3.12,2.20*01
00:00:53.618;A;$GPGSV,2,1,08,05,53,292,36,07,54,062,25,09,21,098,25,11,,,20*46
00:00:53.673;B;$SDDPT,,0.00,100.0*4A
00:00:53.683;A;$GPGSV,2,2,08,13,36,280,37,20,,,40,22,09,170,,30,83,141,32*4C
00:00:53.729;B;$SDDBT,,f,,M,,F*28
00:00:53.750;A;$GPGLL,4935.39736,N,01104.04686,E,155549.00,A,A*6B
00:00:53.776;B;$YXMTW,27.08,C*2F
00:00:54.220;I;$POSMVCC,5073,4873*5E
00:00:54.375;A;$GPRMC,155550.00,A,4935.39736,N,01104.04653,E,1.089,,200824,,,A*7E
00:00:54.448;A;$GPVTG,,T,,M,1.089,N,2.016,K,A*26
00:00:54.486;A;$GPGGA,155550.00,4935.39736,N,01104.04653,E,1,05,3.13,295.7,M,47.0,M,,*50
00:00:54.561;A;$GPGSA,A,3,30,05,07,09,13,,,,,,,,3.82,3.13,2.20*00
00:00:54.616;A;$GPGSV,2,1,07,05,53,292,43,07,54,062,30,09,21,098,26,13,36,280,44*73
00:00:54.671;B;$SDDPT,,0.00,100.0*4A
00:00:54.690;A;$GPGSV,2,2,07,20,,,38,22,09,170,,30,83,141,33*74
00:00:54.724;B;$SDDBT,,f,,M,,F*28
00:00:54.742;A;$GPGLL,4935.39736,N,01104.04653,E,155550.00,A,A*6B
00:00:54.775;B;$YXMTW,27.07,C*20
00:00:55.220;I;$POSMVCC,5073,4873*5E
00:00:55.374;A;$GPRMC,155551.00,A,4935.39693,N,01104.04605,E,0.505,,200824,,,A*72
00:00:55.448;A;$GPVTG,,T,,M,0.505,N,0.936,K,A*2F
00:00:55.483;A;$GPGGA,155551.00,4935.39693,N,01104.04605,E,1,05,3.13,295.3,M,47.0,M,,*58
00:00:55.562;A;$GPGSA,A,3,30,05,07,09,13,,,,,,,,3.82,3.13,2.20*00
00:00:55.616;A;$GPGSV,2,1,07,05,53,292,36,07,54,062,31,09,21,098,26,13,36,280,45*71
00:00:55.673;B;$SDDPT,,0.00,100.0*4A
00:00:55.688;A;$GPGSV,2,2,07,20,,,27,22,09,170,,30,83,141,27*7F
00:00:55.727;B;$SDDBT,,f,,M,,F*28
00:00:55.741;A;$GPGLL,4935.39693,N,01104.04605,E,155551.00,A,A*67
00:00:55.775;B;$YXMTW,27.07,C*20
00:00:56.221;I;$POSMVCC,5073,4873*5E
00:00:56.381;A;$GPRMC,155552.00,A,4935.39739,N,01104.04601,E,0.984,,200824,,,A*71
00:00:56.455;A;$GPVTG,,T,,M,0.984,N,1.823,K,A*2E
00:00:56.492;A;$GPGGA,155552.00,4935.39739,N,01104.04601,E,1,06,2.12,294.6,M,47.0,M,,*59
00:00:56.568;A;$GPGSA,A,3,30,20,05,07,09,13,,,,,,,2.99,2.12,2.11*0B
00:00:56.625;A;$GPGSV,2,1,07,05,53,292,42,07,54,062,23,09,21,098,25,13,36,280,36*76
00:00:56.678;B;$SDDPT,,0.00,100.0*4A
00:00:56.700;A;$GPGSV,2,2,07,20,61,234,28,22,09,170,,30,83,141,32*46
00:00:56.732;B;$SDDBT,,f,,M,,F*28
00:00:56.756;A;$GPGLL,4935.39739,N,01104.04601,E,155552.00,A,A*61
00:00:56.779;B;$YXMTW,27.07,C*20
00:00:57.222;I;$POSMVCC,5073,4873*5E
00:00:57.376;A;$GPRMC,155553.00,A,4935.39452,N,01104.04480,E,0.391,,200824,,,A*7B
00:00:57.451;A;$GPVTG,,T,,M,0.391,N,0.724,K,A*29
00:00:57.488;A;$GPGGA,155553.00,4935.39452,N,01104.04480,E,1,06,2.12,295.9,M,47.0,M,,*53
00:00:57.568;A;$GPGSA,A,3,30,20,05,07,09,13,,,,,,,2.99,2.12,2.11*0B
00:00:57.622;A;$GPGSV,2,1,07,05,53,292,39,07,54,062,34,09,21,098,23,13,36,280,40*7B
00:00:57.670;B;$SDDPT,,0.00,100.0*4A
00:00:57.694;A;$GPGSV,2,2,07,20,61,234,38,22,09,170,,30,83,141,31*44
00:00:57.726;B;$SDDBT,,f,,M,,F*28
00:00:57.752;A;$GPGLL,4935.39452,N,01104.04480,E,155553.00,A,A*65
00:00:57.773;B;$YXMTW,27.07,C*20
00:00:58.223;I;$POSMVCC,5073,4873*5E
00:00:58.379;A;$GPRMC,155554.00,A,4935.39507,N,01104.04470,E,0.722,,200824,,,A*7E
00:00:58.452;A;$GPVTG,,T,,M,0.722,N,1.337,K,A*22
00:00:58.488;A;$GPGGA,155554.00,4935.39507,N,01104.04470,E,1,06,2.12,296.6,M,47.0,M,,*56
00:00:58.565;A;$GPGSA,A,3,30,20,05,07,09,13,,,,,,,2.99,2.12,2.11*0B
00:00:58.621;A;$GPGSV,2,1,07,05,53,292,27,07,54,062,30,09,21,098,21,13,36,280,42*70
00:00:58.673;B;$SDDPT,,0.00,100.0*4A
00:00:58.696;A;$GPGSV,2,2,07,20,61,234,39,22,09,170,,30,83,141,31*45
00:00:58.728;B;$SDDBT,,f,,M,,F*28
00:00:58.752;A;$GPGLL,4935.39507,N,01104.04470,E,155554.00,A,A*6C
00:00:58.775;B;$YXMTW,27.06,C*21
00:00:59.225;I;$POSMVCC,5073,4873*5E
00:00:59.374;A;$GPRMC,155555.00,A,4935.39542,N,01104.04457,E,0.497,,200824,,,A*76
00:00:59.448;A;$GPVTG,,T,,M,0.497,N,0.920,K,A*22
00:00:59.485;A;$GPGGA,155555.00,4935.39542,N,01104.04457,E,1,06,2.12,297.2,M,47.0,M,,*56
00:00:59.561;A;$GPGSA,A,3,30,20,05,07,09,13,,,,,,,2.99,2.12,2.11*0B
00:00:59.618;A;$GPGSV,2,1,07,05,53,292,35,07,54,062,23,09,21,098,21,13,36,280,38*7C
00:00:59.671;B;$SDDPT,,0.00,100.0*4A
00:00:59.692;A;$GPGSV,2,2,07,20,61,234,31,22,09,170,,30,83,139,35*46
00:00:59.724;B;$SDDBT,,f,,M,,F*28
00:00:59.749;A;$GPGLL,4935.39542,N,01104.04457,E,155555.00,A,A*69
00:00:59.774;B;$YXMTW,27.06,C*21
00:01:00.227;I;$POSMVCC,5073,4873*5E
00:01:00.376;A;$GPRMC,155556.00,A,4935.39528,N,01104.04442,E,0.371,,200824,,,A*72
00:01:00.451;A;$GPVTG,,T,,M,0.371,N,0.688,K,A*20
00:01:00.486;A;$GPGGA,155556.00,4935.39528,N,01104.04442,E,1,06,2.12,297.1,M,47.0,M,,*5E
00:01:00.563;A;$GPGSA,A,3,30,20,05,07,09,13,,,,,,,2.99,2.12,2.11*0B
00:01:00.620;A;$GPGSV,2,1,07,05,53,292,40,07,54,062,31,09,21,098,23,13,36,280,42*72
00:01:00.674;B;$SDDPT,1.33,0.00,100.0*55
00:01:00.692;A;$GPGSV,2,2,07,20,61,234,32,22,09,170,,30,83,139,39*49
00:01:00.750;A;$GPGLL,4935.39528,N,01104.04442,E,155556.00,A,A*62
00:01:00.738;B;$SDDBT,4.36,f,1.33,M,0.72,F*33
00:01:00.811;B;$YXMTW,27.05,C*22
00:01:01.229;I;$POSMVCC,5073,4873*5E
00:01:01.376;A;$GPRMC,155557.00,A,4935.39532,N,01104.04436,E,0.188,,200824,,,A*7F
00:01:01.448;A;$GPVTG,,T,,M,0.188,N,0.349,K,A*2C
00:01:01.486;A;$GPGGA,155557.00,4935.39532,N,01104.04436,E,1,06,2.12,297.5,M,47.0,M,,*53
00:01:01.562;A;$GPGSA,A,3,30,20,05,07,09,13,,,,,,,2.99,2.12,2.11*0B
00:01:01.619;A;$GPGSV,2,1,07,05,53,292,41,07,54,062,27,09,21,098,23,13,36,280,29*79
00:01:01.674;B;$SDDPT,0.39,0.00,100.0*5E
00:01:01.690;A;$GPGSV,2,2,07,20,61,234,29,22,09,170,,30,83,139,23*48
00:01:01.749;A;$GPGLL,4935.39532,N,01104.04436,E,155557.00,A,A*6B
00:01:01.739;B;$SDDBT,1.27,f,0.39,M,0.21,F*3B
00:01:01.815;B;$YXMTW,27.05,C*22
00:01:02.231;I;$POSMVCC,5073,4873*5E
00:01:02.377;A;$GPRMC,155558.00,A,4935.39498,N,01104.04334,E,0.872,,200824,,,A*78
00:01:02.451;A;$GPVTG,,T,,M,0.872,N,1.615,K,A*2D
00:01:02.488;A;$GPGGA,155558.00,4935.39498,N,01104.04334,E,1,06,2.32,298.8,M,47.0,M,,*58
00:01:02.565;A;$GPGSA,A,3,30,20,05,07,09,13,,,,,,,3.64,2.32,2.80*02
00:01:02.621;A;$GPGSV,2,1,07,05,53,292,46,07,54,062,38,09,21,098,23,13,36,280,34*7C
00:01:02.670;B;$SDDPT,0.34,0.00,100.0*53
00:01:02.696;A;$GPGSV,2,2,07,20,61,234,27,22,09,170,23,30,83,139,29*4D
00:01:02.755;A;$GPGLL,4935.39498,N,01104.04334,E,155558.00,A,A*60
00:01:02.735;B;$SDDBT,1.11,f,0.34,M,0.18,F*39
00:01:02.811;B;$YXMTW,27.04,C*23
00:01:03.234;I;$POSMVCC,5073,4873*5E
00:01:03.380;A;$GPRMC,155559.00,A,4935.39489,N,01104.04366,E,0.806,250.38,200824,,,A*6F
00:01:03.459;A;$GPVTG,250.38,T,,M,0.806,N,1.493,K,A*30
00:01:03.502;A;$GPGGA,155559.00,4935.39489,N,01104.04366,E,1,06,2.12,297.4,M,47.0,M,,*5F
00:01:03.579;A;$GPGSA,A,3,30,20,05,07,09,13,,,,,,,2.99,2.12,2.11*0B
00:01:03.636;A;$GPGSV,2,1,07,05,53,292,45,07,54,062,36,09,21,098,30,13,36,280,42*72
00:01:03.674;B;$SDDPT,0.36,0.00,100.0*51
00:01:03.709;A;$GPGSV,2,2,07,20,61,234,25,22,09,170,21,30,83,139,40*42
00:01:03.738;B;$SDDBT,1.18,f,0.36,M,0.19,F*33
00:01:03.769;A;$GPGLL,4935.39489,N,01104.04366,E,155559.00,A,A*66
00:01:03.814;B;$YXMTW,27.04,C*23
00:01:04.236;I;$POSMVCC,5073,4873*5E
00:01:04.378;A;$GPRMC,155600.00,A,4935.39498,N,01104.04399,E,0.607,,200824,,,A*7D
00:01:04.453;A;$GPVTG,,T,,M,0.607,N,1.124,K,A*24
00:01:04.491;A;$GPGGA,155600.00,4935.39498,N,01104.04399,E,1,06,2.12,296.5,M,47.0,M,,*50
00:01:04.567;A;$GPGSA,A,3,30,20,05,07,09,13,,,,,,,2.99,2.12,2.11*0B
00:01:04.623;A;$GPGSV,2,1,07,05,53,292,43,07,54,062,38,09,21,098,21,13,36,280,39*76
00:01:04.670;B;$SDDPT,0.48,0.00,100.0*58
00:01:04.696;A;$GPGSV,2,2,07,20,61,234,32,22,09,170,22,30,83,139,32*42
00:01:04.756;A;$GPGLL,4935.39498,N,01104.04399,E,155600.00,A,A*69
00:01:04.735;B;$SDDBT,1.57,f,0.48,M,0.26,F*3D
00:01:04.809;B;$YXMTW,27.03,C*24
00:01:05.238;I;$POSMVCC,5073,4873*5E
00:01:05.376;A;$GPRMC,155601.00,A,4935.39455,N,01104.04439,E,0.356,,200824,,,A*71
00:01:05.451;A;$GPVTG,,T,,M,0.356,N,0.659,K,A*29
00:01:05.484;A;$GPGGA,155601.00,4935.39455,N,01104.04439,E,1,06,2.12,295.9,M,47.0,M,,*52
00:01:05.563;A;$GPGSA,A,3,30,20,05,07,09,13,,,,,,,2.99,2.12,2.11*0B
00:01:05.619;A;$GPGSV,2,1,07,05,53,292,41,07,54,062,37,09,21,098,18,13,36,280,34*7C
00:01:05.673;B;$SDDPT,0.48,0.00,100.0*58
00:01:05.691;A;$GPGSV,2,2,07,20,61,234,39,22,09,170,21,30,83,139,28*41
00:01:05.754;A;$GPGLL,4935.39455,N,01104.04439,E,155601.00,A,A*64
00:01:05.737;B;$SDDBT,1.57,f,0.48,M,0.26,F*3D
00:01:05.811;B;$YXMTW,27.02,C*25
00:01:06.238;I;$POSMVCC,5073,4873*5E
00:01:06.376;A;$GPRMC,155602.00,A,4935.39622,N,01104.04440,E,0.148,,200824,,,A*73
00:01:06.448;A;$GPVTG,,T,,M,0.148,N,0.274,K,A*2F
00:01:06.485;A;$GPGGA,155602.00,4935.39622,N,01104.04440,E,1,06,2.12,295.4,M,47.0,M,,*50
00:01:06.564;A;$GPGSA,A,3,30,20,05,07,09,13,,,,,,,2.99,2.12,2.11*0B
00:01:06.620;A;$GPGSV,2,1,07,05,53,292,44,07,54,062,35,09,21,098,21,13,36,280,41*73
00:01:06.675;B;$SDDPT,0.52,0.00,100.0*53
00:01:06.694;A;$GPGSV,2,2,07,20,61,234,42,22,09,170,19,30,83,139,38*47
00:01:06.751;A;$GPGLL,4935.39622,N,01104.04440,E,155602.00,A,A*6B
00:01:06.739;B;$SDDBT,1.70,f,0.52,M,0.28,F*3D
00:01:06.813;B;$YXMTW,27.01,C*26
00:01:07.240;I;$POSMVCC,5073,4873*5E
00:01:07.379;A;$GPRMC,155603.00,A,4935.39563,N,01104.04459,E,0.310,,200824,,,A*73
00:01:07.453;A;$GPVTG,,T,,M,0.310,N,0.575,K,A*26
00:01:07.487;A;$GPGGA,155603.00,4935.39563,N,01104.04459,E,1,06,2.12,295.5,M,47.0,M,,*5E
00:01:07.567;A;$GPGSA,A,3,30,20,05,07,09,13,,,,,,,2.99,2.12,2.11*0B
00:01:07.621;A;$GPGSV,2,1,07,05,53,292,45,07,54,062,33,09,21,098,29,13,36,280,43*7E
00:01:07.671;B;$SDDPT,0.54,0.00,100.0*55
00:01:07.696;A;$GPGSV,2,2,07,20,61,234,39,22,09,170,19,30,83,139,38*4B
00:01:07.753;A;$GPGLL,4935.39563,N,01104.04459,E,155603.00,A,A*64
00:01:07.735;B;$SDDBT,1.77,f,0.54,M,0.29,F*3D
00:01:07.810;B;$YXMTW,26.99,C*26
00:01:08.241;I;$POSMVCC,5073,4873*5E
00:01:08.378;A;$GPRMC,155604.00,A,4935.39609,N,01104.04459,E,0.119,,200824,,,A*70
00:01:08.453;A;$GPVTG,,T,,M,0.119,N,0.221,K,A*2B
00:01:08.489;A;$GPGGA,155604.00,4935.39609,N,01104.04459,E,1,06,2.12,295.8,M,47.0,M,,*5B
00:01:08.568;A;$GPGSA,A,3,30,20,05,07,09,13,,,,,,,2.99,2.12,2.11*0B
00:01:08.622;A;$GPGSV,2,1,07,05,53,292,45,07,54,062,38,09,21,098,21,13,36,280,32*7B
00:01:08.673;B;$SDDPT,0.54,0.00,100.0*55
00:01:08.697;A;$GPGSV,2,2,07,20,61,234,41,22,09,170,18,30,83,139,37*4A
00:01:08.756;A;$GPGLL,4935.39609,N,01104.04459,E,155604.00,A,A*6C
00:01:08.738;B;$SDDBT,1.77,f,0.54,M,0.29,F*3D
00:01:08.813;B;$YXMTW,26.98,C*27
00:01:09.243;I;$POSMVCC,5073,4873*5E
00:01:09.379;A;$GPRMC,155605.00,A,4935.39604,N,01104.04470,E,0.104,,200824,,,A*7B
00:01:09.450;A;$GPVTG,,T,,M,0.104,N,0.193,K,A*2D
00:01:09.487;A;$GPGGA,155605.00,4935.39604,N,01104.04470,E,1,06,2.12,295.8,M,47.0,M,,*5C
00:01:09.566;A;$GPGSA,A,3,30,20,05,07,09,13,,,,,,,2.99,2.12,2.11*0B
00:01:09.622;A;$GPGSV,2,1,07,05,53,292,45,07,54,062,36,09,21,098,24,13,36,280,35*77
00:01:09.668;B;$SDDPT,0.52,0.00,100.0*53
00:01:09.696;A;$GPGSV,2,2,07,20,61,234,42,22,09,170,17,30,83,139,30*41
00:01:09.753;A;$GPGLL,4935.39604,N,01104.04470,E,155605.00,A,A*6B
00:01:09.735;B;$SDDBT,1.70,f,0.52,M,0.28,F*3D
00:01:09.810;B;$YXMTW,26.96,C*29
00:01:10.243;I;$POSMVCC,5073,4873*5E
00:01:10.377;A;$GPRMC,155606.00,A,4935.39533,N,01104.04462,E,0.633,,200824,,,A*7F
00:01:10.451;A;$GPVTG,,T,,M,0.633,N,1.172,K,A*20
00:01:10.486;A;$GPGGA,155606.00,4935.39533,N,01104.04462,E,1,06,2.32,296.4,M,47.0,M,,*56
00:01:10.565;A;$GPGSA,A,3,30,20,05,07,09,13,,,,,,,3.64,2.32,2.80*02
00:01:10.620;A;$GPGSV,2,1,07,05,53,292,39,07,54,062,35,09,21,098,23,13,36,280,27*7B
00:01:10.671;B;$SDDPT,0.54,0.00,100.0*55
00:01:10.694;A;$GPGSV,2,2,07,20,61,234,41,22,09,170,14,30,83,139,36*47
00:01:10.752;A;$GPGLL,4935.39533,N,01104.04462,E,155606.00,A,A*6C
00:01:10.737;B;$SDDBT,1.77,f,0.54,M,0.29,F*3D
00:01:10.812;B;$YXMTW,26.94,C*2B
00:01:11.246;I;$POSMVCC,5073,4873*5E
00:01:11.376;A;$GPRMC,155607.00,A,4935.39477,N,01104.04448,E,0.182,,200824,,,A*7A
00:01:11.450;A;$GPVTG,,T,,M,0.182,N,0.337,K,A*2F
00:01:11.487;A;$GPGGA,155607.00,4935.39477,N,01104.04448,E,1,06,2.12,297.0,M,47.0,M,,*59
00:01:11.564;A;$GPGSA,A,3,30,20,05,07,09,13,,,,,,,2.99,2.12,2.11*0B
00:01:11.620;A;$GPGSV,2,1,07,05,53,292,42,07,54,062,32,09,21,098,24,13,36,280,36*77
00:01:11.673;B;$SDDPT,0.55,0.00,100.0*54
00:01:11.695;A;$GPGSV,2,2,07,20,61,234,41,22,09,170,16,30,83,139,36*45
00:01:11.752;A;$GPGLL,4935.39477,N,01104.04448,E,155607.00,A,A*64
00:01:11.738;B;$SDDBT,1.80,f,0.55,M,0.30,F*3C
00:01:11.814;B;$YXMTW,26.92,C*2D
00:01:12.248;I;$POSMVCC,5073,4873*5E
00:01:12.377;A;$GPRMC,155608.00,A,4935.39471,N,01104.04432,E,0.231,,200824,,,A*75
00:01:12.450;A;$GPVTG,,T,,M,0.231,N,0.429,K,A*2C
00:01:12.485;A;$GPGGA,155608.00,4935.39471,N,01104.04432,E,1,06,2.12,297.4,M,47.0,M,,*59
00:01:12.564;A;$GPGSA,A,3,30,20,05,07,09,13,,,,,,,2.99,2.12,2.11*0B
00:01:12.621;A;$GPGSV,2,1,07,05,53,292,43,07,54,062,39,09,21,098,30,13,36,280,32*7C
00:01:12.670;B;$SDDPT,0.54,0.00,100.0*55
00:01:12.694;A;$GPGSV,2,2,07,20,61,234,39,22,09,170,16,30,83,139,41*4A
00:01:12.753;A;$GPGLL,4935.39471,N,01104.04432,E,155608.00,A,A*60
00:01:12.735;B;$SDDBT,1.77,f,0.54,M,0.29,F*3D
00:01:12.810;B;$YXMTW,26.90,C*2F
00:01:13.250;I;$POSMVCC,5073,4873*5E
00:01:13.377;A;$GPRMC,155609.00,A,4935.39480,N,01104.04424,E,0.255,,200824,,,A*7F
00:01:13.452;A;$GPVTG,,T,,M,0.255,N,0.473,K,A*21
00:01:13.486;A;$GPGGA,155609.00,4935.39480,N,01104.04424,E,1,06,2.12,298.1,M,47.0,M,,*5B
00:01:13.567;A;$GPGSA,A,3,30,20,05,07,09,13,,,,,,,2.99,2.12,2.11*0B
00:01:13.621;A;$GPGSV,2,1,07,05,53,292,41,07,54,062,37,09,21,098,27,13,36,280,32*76
00:01:13.673;B;$SDDPT,0.54,0.00,100.0*55
00:01:13.695;A;$GPGSV,2,2,07,20,61,234,43,22,09,170,16,30,83,139,34*45
00:01:13.753;A;$GPGLL,4935.39480,N,01104.04424,E,155609.00,A,A*68
00:01:13.739;B;$SDDBT,1.77,f,0.54,M,0.29,F*3D
00:01:13.812;B;$YXMTW,26.88,C*26
00:01:14.251;I;$POSMVCC,5073,4873*5E
00:01:14.381;A;$GPRMC,155610.00,A,4935.39482,N,01104.04399,E,0.455,,200824,,,A*72
00:01:14.454;A;$GPVTG,,T,,M,0.455,N,0.843,K,A*28
00:01:14.488;A;$GPGGA,155610.00,4935.39482,N,01104.04399,E,1,06,2.12,297.9,M,47.0,M,,*57
00:01:14.567;A;$GPGSA,A,3,30,20,05,07,09,13,,,,,,,2.99,2.12,2.11*0B
00:01:14.624;A;$GPGSV,2,1,07,05,53,292,41,07,54,062,35,09,21,098,14,13,36,280,40*71
00:01:14.670;B;$SDDPT,0.55,0.00,100.0*54
00:01:14.695;A;$GPGSV,2,2,07,20,61,234,37,22,09,170,,30,83,139,35*40
00:01:14.754;A;$GPGLL,4935.39482,N,01104.04399,E,155610.00,A,A*63
00:01:14.734;B;$SDDBT,1.80,f,0.55,M,0.30,F*3C
00:01:14.811;B;$YXMTW,26.86,C*28
00:01:15.253;I;$POSMVCC,5073,4873*5E
00:01:15.378;A;$GPRMC,155611.00,A,4935.39493,N,01104.04411,E,0.310,,200824,,,A*72
00:01:15.452;A;$GPVTG,,T,,M,0.310,N,0.575,K,A*26
00:01:15.489;A;$GPGGA,155611.00,4935.39493,N,01104.04411,E,1,06,2.12,299.2,M,47.0,M,,*54
00:01:15.566;A;$GPGSA,A,3,30,20,05,07,09,13,,,,,,,2.99,2.12,2.11*0B
00:01:15.622;A;$GPGSV,2,1,07,05,53,292,33,07,54,062,35,09,21,098,28,13,36,280,36*7A
00:01:15.670;B;$SDDPT,0.57,0.00,100.0*56
00:01:15.696;A;$GPGSV,2,2,07,20,61,234,39,22,09,170,,30,83,139,36*4D
00:01:15.753;A;$GPGLL,4935.39493,N,01104.04411,E,155611.00,A,A*65
00:01:15.737;B;$SDDBT,1.87,f,0.57,M,0.31,F*38
00:01:15.811;B;$YXMTW,26.83,C*2D
00:01:16.254;I;$POSMVCC,5073,4873*5E
00:01:16.377;A;$GPRMC,155612.00,A,4935.39504,N,01104.04408,E,0.085,,200824,,,A*79
00:01:16.450;A;$GPVTG,,T,,M,0.085,N,0.158,K,A*22
00:01:16.487;A;$GPGGA,155612.00,4935.39504,N,01104.04408,E,1,06,2.12,299.4,M,47.0,M,,*56
00:01:16.567;A;$GPGSA,A,3,30,20,05,07,09,13,,,,,,,2.99,2.12,2.11*0B
00:01:16.621;A;$GPGSV,2,1,07,05,53,292,38,07,54,062,40,09,21,098,29,13,36,280,38*7C
00:01:16.675;B;$SDDPT,0.64,0.00,100.0*56
00:01:16.693;A;$GPGSV,2,2,07,20,61,234,40,22,09,170,,30,83,139,37*42
00:01:16.751;A;$GPGLL,4935.39504,N,01104.04408,E,155612.00,A,A*61
00:01:16.739;B;$SDDBT,2.10,f,0.64,M,0.35,F*31
00:01:16.814;B;$YXMTW,26.80,C*2E
00:01:17.256;I;$POSMVCC,5073,4873*5E
00:01:17.377;A;$GPRMC,155613.00,A,4935.39499,N,01104.04413,E,0.319,,200824,,,A*71
00:01:17.450;A;$GPVTG,,T,,M,0.319,N,0.591,K,A*25
00:01:17.487;A;$GPGGA,155613.00,4935.39499,N,01104.04413,E,1,06,2.12,297.5,M,47.0,M,,*57
00:01:17.563;A;$GPGSA,A,3,30,20,05,07,09,13,,,,,,,2.99,2.12,2.11*0B
00:01:17.620;A;$GPGSV,2,1,07,05,53,292,42,07,54,062,41,09,21,098,28,13,36,280,34*7D
00:01:17.671;B;$SDDPT,0.66,0.00,100.0*54
00:01:17.691;A;$GPGSV,2,2,07,20,61,234,33,22,09,170,,30,83,139,41*47
00:01:17.750;A;$GPGLL,4935.39499,N,01104.04413,E,155613.00,A,A*6F
00:01:17.735;B;$SDDBT,2.16,f,0.66,M,0.36,F*36
00:01:17.809;B;$YXMTW,26.78,C*29
00:01:18.258;I;$POSMVCC,5073,4873*5E
00:01:18.381;A;$GPRMC,155614.00,A,4935.39506,N,01104.04431,E,0.220,,200824,,,A*7A
00:01:18.455;A;$GPVTG,,T,,M,0.220,N,0.408,K,A*2F
00:01:18.491;A;$GPGGA,155614.00,4935.39506,N,01104.04431,E,1,06,2.12,297.0,M,47.0,M,,*52
00:01:18.568;A;$GPGSA,A,3,30,20,05,07,09,13,,,,,,,2.99,2.12,2.11*0B
00:01:18.624;A;$GPGSV,2,1,07,05,53,292,37,07,54,062,41,09,21,098,11,13,36,280,43*75
00:01:18.673;B;$SDDPT,0.72,0.00,100.0*51
00:01:18.700;A;$GPGSV,2,2,07,20,61,234,37,22,09,170,,30,83,139,36*43
00:01:18.755;A;$GPGLL,4935.39506,N,01104.04431,E,155614.00,A,A*6F
00:01:18.737;B;$SDDBT,2.36,f,0.72,M,0.39,F*3E
00:01:18.812;B;$YXMTW,26.75,C*24
00:01:19.260;I;$POSMVCC,5073,4873*5E
00:01:19.381;A;$GPRMC,155615.00,A,4935.39520,N,01104.04429,E,0.577,,200824,,,A*73
00:01:19.453;A;$GPVTG,,T,,M,0.577,N,1.069,K,A*28
00:01:19.490;A;$GPGGA,155615.00,4935.39520,N,01104.04429,E,1,06,2.12,296.9,M,47.0,M,,*56
00:01:19.569;A;$GPGSA,A,3,30,20,05,07,09,13,,,,,,,2.99,2.12,2.11*0B
00:01:19.624;A;$GPGSV,2,1,07,05,53,292,37,07,54,062,42,09,21,098,18,13,36,280,39*72
00:01:19.668;B;$SDDPT,0.73,0.00,100.0*50
00:01:19.696;A;$GPGSV,2,2,07,20,61,234,34,22,09,170,,30,83,139,41*40
00:01:19.754;A;$GPGLL,4935.39520,N,01104.04429,E,155615.00,A,A*63
00:01:19.733;B;$SDDBT,2.39,f,0.73,M,0.39,F*30
00:01:19.810;B;$YXMTW,26.72,C*23
00:01:20.262;I;$POSMVCC,5073,4873*5E
00:01:20.381;A;$GPRMC,155616.00,A,4935.39525,N,01104.04427,E,0.272,,200824,,,A*79
00:01:20.455;A;$GPVTG,,T,,M,0.272,N,0.504,K,A*25
00:01:20.489;A;$GPGGA,155616.00,4935.39525,N,01104.04427,E,1,06,2.12,297.1,M,47.0,M,,*57
00:01:20.568;A;$GPGSA,A,3,30,20,05,07,09,13,,,,,,,2.99,2.12,2.11*0B
00:01:20.624;A;$GPGSV,2,1,07,05,53,292,37,07,54,062,41,09,21,098,22,13,36,280,32*73
00:01:20.671;B;$SDDPT,0.73,0.00,100.0*50
00:01:20.697;A;$GPGSV,2,2,07,20,61,234,44,22,09,170,,30,83,139,41*47
00:01:20.754;A;$GPGLL,4935.39525,N,01104.04427,E,155616.00,A,A*6B
00:01:20.736;B;$SDDBT,2.39,f,0.73,M,0.39,F*30
00:01:20.812;B;$YXMTW,26.69,C*29
00:01:21.263;I;$POSMVCC,5073,4873*5E
00:01:21.375;A;$GPRMC,155617.00,A,4935.39528,N,01104.04426,E,0.141,,200824,,,A*77
00:01:21.448;A;$GPVTG,,T,,M,0.141,N,0.262,K,A*21
00:01:21.485;A;$GPGGA,155617.00,4935.39528,N,01104.04426,E,1,06,2.12,297.1,M,47.0,M,,*5A
00:01:21.562;A;$GPGSA,A,3,30,20,05,07,09,13,,,,,,,2.99,2.12,2.11*0B
00:01:21.618;A;$GPGSV,2,1,07,05,53,292,39,07,54,062,40,09,21,098,25,13,36,280,39*70
00:01:21.674;B;$SDDPT,0.75,0.00,100.0*56
00:01:21.692;A;$GPGSV,2,2,07,20,61,234,41,22,09,170,,30,83,139,39*4D
00:01:21.750;A;$GPGLL,4935.39528,N,01104.04426,E,155617.00,A,A*66
00:01:21.739;B;$SDDBT,2.46,f,0.75,M,0.41,F*31
00:01:21.814;B;$YXMTW,26.67,C*27
00:01:22.264;I;$POSMVCC,5073,4873*5E
00:01:22.379;A;$GPRMC,155618.00,A,4935.39529,N,01104.04402,E,0.149,,200824,,,A*77
00:01:22.454;A;$GPVTG,,T,,M,0.149,N,0.276,K,A*2C
00:01:22.491;A;$GPGGA,155618.00,4935.39529,N,01104.04402,E,1,06,2.12,296.0,M,47.0,M,,*52
00:01:22.567;A;$GPGSA,A,3,30,20,05,07,09,13,,,,,,,2.99,2.12,2.11*0B
00:01:22.625;A;$GPGSV,2,1,07,05,53,292,41,07,54,062,43,09,21,098,28,13,36,280,38*70
00:01:22.669;B;$SDDPT,0.78,0.00,100.0*5B
00:01:22.697;A;$GPGSV,2,2,07,20,61,234,40,22,09,170,,30,83,139,38*4D
00:01:22.755;A;$GPGLL,4935.39529,N,01104.04402,E,155618.00,A,A*6E
00:01:22.734;B;$SDDBT,2.55,f,0.78,M,0.42,F*3D
00:01:22.808;B;$YXMTW,26.64,C*24
00:01:23.266;I;$POSMVCC,5073,4873*5E
00:01:23.380;A;$GPRMC,155619.00,A,4935.39523,N,01104.04399,E,0.222,,200824,,,A*77
00:01:23.456;A;$GPVTG,,T,,M,0.222,N,0.412,K,A*26
00:01:23.490;A;$GPGGA,155619.00,4935.39523,N,01104.04399,E,1,06,2.12,296.1,M,47.0,M,,*5D
00:01:23.568;A;$GPGSA,A,3,30,20,05,07,09,13,,,,,,,2.99,2.12,2.11*0B
00:01:23.623;A;$GPGSV,2,1,07,05,53,292,44,07,54,062,42,09,21,098,28,13,36,280,44*7F
00:01:23.672;B;$SDDPT,0.76,0.00,100.0*55
00:01:23.697;A;$GPGSV,2,2,07,20,61,234,40,22,09,170,,30,83,139,38*4D
00:01:23.753;A;$GPGLL,4935.39523,N,01104.04399,E,155619.00,A,A*60
00:01:23.736;B;$SDDBT,2.49,f,0.76,M,0.41,F*3D
00:01:23.812;B;$YXMTW,26.61,C*21
00:01:24.268;I;$POSMVCC,5073,4873*5E
00:01:24.382;A;$GPRMC,155620.00,A,4935.39493,N,01104.04416,E,0.138,,200824,,,A*7F
00:01:24.454;A;$GPVTG,,T,,M,0.138,N,0.256,K,A*28
00:01:24.491;A;$GPGGA,155620.00,4935.39493,N,01104.04416,E,1,06,2.12,295.2,M,47.0,M,,*5D
00:01:24.570;A;$GPGSA,A,3,30,20,05,07,09,13,,,,,,,2.99,2.12,2.11*0B
00:01:24.626;A;$GPGSV,2,1,07,05,53,292,44,07,54,062,41,09,21,098,29,13,36,280,44*7D
00:01:24.668;B;$SDDPT,0.78,0.00,100.0*5B
00:01:24.698;A;$GPGSV,2,2,07,20,61,234,42,22,09,170,,30,83,139,40*40
00:01:24.767;A;$GPGLL,4935.39493,N,01104.04416,E,155620.00,A,A*60
00:01:24.732;B;$SDDBT,2.55,f,0.78,M,0.42,F*3D
00:01:24.809;B;$YXMTW,26.58,C*2B
00:01:25.270;I;$POSMVCC,5073,4873*5E
00:01:25.382;A;$GPRMC,155621.00,A,4935.39473,N,01104.04435,E,0.037,,200824,,,A*7F
00:01:25.453;A;$GPVTG,,T,,M,0.037,N,0.068,K,A*29
00:01:25.490;A;$GPGGA,155621.00,4935.39473,N,01104.04435,E,1,06,2.12,294.3,M,47.0,M,,*53
00:01:25.568;A;$GPGSA,A,3,30,20,05,07,09,13,,,,,,,2.99,2.12,2.11*0B
00:01:25.626;A;$GPGSV,2,1,07,05,53,292,44,07,54,062,41,09,21,098,28,13,36,280,43*7B
00:01:25.670;B;$SDDPT,0.76,0.00,100.0*55
00:01:25.696;A;$GPGSV,2,2,07,20,61,234,42,22,09,170,,30,83,139,40*40
00:01:25.754;A;$GPGLL,4935.39473,N,01104.04435,E,155621.00,A,A*6E
00:01:25.735;B;$SDDBT,2.49,f,0.76,M,0.41,F*3D
00:01:25.810;B;$YXMTW,26.55,C*26
00:01:26.270;I;$POSMVCC,5073,4873*5E
00:01:26.382;A;$GPRMC,155622.00,A,4935.39445,N,01104.04450,E,0.212,,200824,,,A*7F
00:01:26.454;A;$GPVTG,,T,,M,0.212,N,0.393,K,A*2B
00:01:26.492;A;$GPGGA,155622.00,4935.39445,N,01104.04450,E,1,06,2.11,294.0,M,47.0,M,,*56
00:01:26.568;A;$GPGSA,A,3,30,20,05,07,09,13,,,,,,,2.99,2.11,2.11*08
00:01:26.625;A;$GPGSV,2,1,07,05,53,292,44,07,54,062,41,09,21,098,29,13,36,280,44*7D
00:01:26.674;B;$SDDPT,0.76,0.00,100.0*55
00:01:26.696;A;$GPGSV,2,2,07,20,61,234,41,22,09,170,,30,83,139,38*4C
00:01:26.755;A;$GPGLL,4935.39445,N,01104.04450,E,155622.00,A,A*6B
00:01:26.738;B;$SDDBT,2.49,f,0.76,M,0.41,F*3D
00:01:26.813;B;$YXMTW,26.52,C*21
00:01:27.272;I;$POSMVCC,5073,4873*5E
00:01:27.382;A;$GPRMC,155623.00,A,4935.39415,N,01104.04465,E,0.051,,200824,,,A*78
00:01:27.453;A;$GPVTG,,T,,M,0.051,N,0.094,K,A*2A
00:01:27.490;A;$GPGGA,155623.00,4935.39415,N,01104.04465,E,1,06,2.11,293.5,M,47.0,M,,*56
00:01:27.569;A;$GPGSA,A,3,30,20,05,07,09,13,,,,,,,2.99,2.11,2.11*08
00:01:27.625;A;$GPGSV,2,1,07,05,53,292,44,07,54,062,41,09,21,098,29,13,36,280,43*7A
00:01:27.669;B;$SDDPT,0.78,0.00,100.0*5B
00:01:27.697;A;$GPGSV,2,2,07,20,61,234,40,22,09,170,,30,83,139,38*4D
00:01:27.756;A;$GPGLL,4935.39415,N,01104.04465,E,155623.00,A,A*69
00:01:27.734;B;$SDDBT,2.55,f,0.78,M,0.42,F*3D
00:01:27.811;B;$YXMTW,26.49,C*2B
00:01:28.274;I;$POSMVCC,5073,4873*5E
00:01:28.378;A;$GPRMC,155624.00,A,4935.39382,N,01104.04483,E,0.066,,200824,,,A*7A
00:01:28.450;A;$GPVTG,,T,,M,0.066,N,0.122,K,A*22
00:01:28.486;A;$GPGGA,155624.00,4935.39382,N,01104.04483,E,1,06,2.11,292.7,M,47.0,M,,*53
00:01:28.565;A;$GPGSA,A,3,30,20,05,07,09,13,,,,,,,2.99,2.11,2.11*08
00:01:28.623;A;$GPGSV,2,1,07,05,53,292,44,07,54,062,41,09,21,098,30,13,36,280,39*7F
00:01:28.672;B;$SDDPT,0.76,0.00,100.0*55
00:01:28.695;A;$GPGSV,2,2,07,20,61,234,40,22,09,170,22,30,83,139,37*42
00:01:28.753;A;$GPGLL,4935.39382,N,01104.04483,E,155624.00,A,A*6F
00:01:28.736;B;$SDDBT,2.49,f,0.76,M,0.41,F*3D
00:01:28.811;B;$YXMTW,26.47,C*25
00:01:29.275;I;$POSMVCC,5073,4873*5E
00:01:29.378;A;$GPRMC,155625.00,A,4935.39369,N,01104.04493,E,0.113,,200824,,,A*7C
00:01:29.450;A;$GPVTG,,T,,M,0.113,N,0.210,K,A*23
00:01:29.488;A;$GPGGA,155625.00,4935.39369,N,01104.04493,E,1,06,2.11,292.5,M,47.0,M,,*54
00:01:29.565;A;$GPGSA,A,3,30,20,05,07,09,13,,,,,,,2.99,2.11,2.11*08
00:01:29.621;A;$GPGSV,2,1,07,05,53,292,44,07,54,062,42,09,21,098,31,13,36,280,34*70
00:01:29.668;B;$SDDPT,0.75,0.00,100.0*56
00:01:29.696;A;$GPGSV,2,2,07,20,61,234,42,22,09,170,22,30,83,139,37*40
00:01:29.753;A;$GPGLL,4935.39369,N,01104.04493,E,155625.00,A,A*6A
00:01:29.733;B;$SDDBT,2.46,f,0.75,M,0.41,F*31
00:01:29.809;B;$YXMTW,26.44,C*26
00:01:30.277;I;$POSMVCC,5073,4873*5E
00:01:30.378;A;$GPRMC,155626.00,A,4935.39362,N,01104.04490,E,0.075,,200824,,,A*76
00:01:30.450;A;$GPVTG,,T,,M,0.075,N,0.140,K,A*24
00:01:30.486;A;$GPGGA,155626.00,4935.39362,N,01104.04490,E,1,06,2.11,292.3,M,47.0,M,,*59
00:01:30.565;A;$GPGSA,A,3,30,20,05,07,09,13,,,,,,,2.99,2.11,2.11*08
00:01:30.621;A;$GPGSV,2,1,07,05,53,292,41,07,54,062,43,09,21,098,31,13,36,280,37*77
00:01:30.671;B;$SDDPT,0.76,0.00,100.0*55
00:01:30.694;A;$GPGSV,2,2,07,20,61,234,40,22,09,170,21,30,83,139,37*41
00:01:30.756;A;$GPGLL,4935.39362,N,01104.04490,E,155626.00,A,A*61
00:01:30.735;B;$SDDBT,2.49,f,0.76,M,0.41,F*3D
00:01:30.811;B;$YXMTW,26.41,C*23
00:01:31.278;I;$POSMVCC,5073,4873*5E
00:01:31.383;A;$GPRMC,155627.00,A,4935.39357,N,01104.04487,E,0.052,,200824,,,A*72
00:01:31.457;A;$GPVTG,,T,,M,0.052,N,0.096,K,A*2B
00:01:31.494;A;$GPGGA,155627.00,4935.39357,N,01104.04487,E,1,06,2.11,292.1,M,47.0,M,,*5A
00:01:31.571;A;$GPGSA,A,3,30,20,05,07,09,13,,,,,,,2.99,2.11,2.11*08
00:01:31.627;A;$GPGSV,2,1,07,05,53,292,43,07,54,062,42,09,21,098,31,13,36,280,36*75
00:01:31.673;B;$SDDPT,0.76,0.00,100.0*55
00:01:31.700;A;$GPGSV,2,2,07,20,61,234,40,22,09,170,21,30,83,139,38*4E
00:01:31.758;A;$GPGLL,4935.39357,N,01104.04487,E,155627.00,A,A*60
00:01:31.737;B;$SDDBT,2.49,f,0.76,M,0.41,F*3D
00:01:31.814;B;$YXMTW,26.38,C*2D
00:01:32.280;I;$POSMVCC,5073,4873*5E
00:01:32.380;A;$GPRMC,155628.00,A,4935.39357,N,01104.04487,E,0.172,,200824,,,A*7E
00:01:32.451;A;$GPVTG,,T,,M,0.172,N,0.318,K,A*2D
00:01:32.488;A;$GPGGA,155628.00,4935.39357,N,01104.04487,E,1,06,2.11,292.0,M,47.0,M,,*54
00:01:32.568;A;$GPGSA,A,3,30,20,05,07,09,13,,,,,,,2.99,2.11,2.11*08
00:01:32.622;A;$GPGSV,2,1,07,05,53,292,43,07,54,062,42,09,21,098,30,13,36,280,34*76
00:01:32.668;B;$SDDPT,0.76,0.00,100.0*55
00:01:32.694;A;$GPGSV,2,2,07,20,61,234,41,22,09,170,19,30,83,139,39*45
00:01:32.754;A;$GPGLL,4935.39357,N,01104.04487,E,155628.00,A,A*6F
00:01:32.733;B;$SDDBT,2.49,f,0.76,M,0.41,F*3D
00:01:32.810;B;$YXMTW,26.36,C*23
00:01:33.281;I;$POSMVCC,5073,4873*5E
00:01:33.376;A;$GPRMC,155629.00,A,4935.39353,N,01104.04483,E,0.126,,200824,,,A*7E
00:01:33.449;A;$GPVTG,,T,,M,0.126,N,0.233,K,A*24
00:01:33.485;A;$GPGGA,155629.00,4935.39353,N,01104.04483,E,1,06,2.11,291.6,M,47.0,M,,*50
00:01:33.563;A;$GPGSA,A,3,30,20,05,07,09,13,,,,,,,2.99,2.11,2.11*08
00:01:33.620;A;$GPGSV,2,1,07,05,53,292,41,07,54,062,43,09,21,098,30,13,36,280,34*75
00:01:33.671;B;$SDDPT,0.76,0.00,100.0*55
00:01:33.692;A;$GPGSV,2,2,07,20,61,234,38,22,09,170,16,30,83,139,39*44
00:01:33.754;A;$GPGLL,4935.39353,N,01104.04483,E,155629.00,A,A*6E
00:01:33.735;B;$SDDBT,2.49,f,0.76,M,0.41,F*3D
00:01:33.812;B;$YXMTW,26.33,C*26
00:01:34.282;I;$POSMVCC,5073,4873*5E
00:01:34.374;A;$GPRMC,155630.00,A,4935.39357,N,01104.04477,E,0.050,,200824,,,A*79
00:01:34.449;A;$GPVTG,,T,,M,0.050,N,0.093,K,A*2C
00:01:34.486;A;$GPGGA,155630.00,4935.39357,N,01104.04477,E,1,06,2.11,291.0,M,47.0,M,,*51
00:01:34.562;A;$GPGSA,A,3,30,20,05,07,09,13,,,,,,,2.99,2.11,2.11*08
00:01:34.618;A;$GPGSV,2,1,07,05,53,292,39,07,54,062,41,09,21,098,28,13,36,280,43*71
00:01:34.667;B;$SDDPT,0.78,0.00,100.0*5B
00:01:34.692;A;$GPGSV,2,2,07,20,61,234,41,22,09,170,,30,83,139,37*43
00:01:34.748;A;$GPGLL,4935.39357,N,01104.04477,E,155630.00,A,A*69
00:01:34.733;B;$SDDBT,2.55,f,0.78,M,0.42,F*3D
00:01:34.808;B;$YXMTW,26.31,C*24
00:01:35.284;I;$POSMVCC,5073,4873*5E
00:01:35.373;A;$GPRMC,155631.00,A,4935.39380,N,01104.04473,E,0.056,,200824,,,A*70
00:01:35.448;A;$GPVTG,,T,,M,0.056,N,0.103,K,A*22
00:01:35.484;A;$GPGGA,155631.00,4935.39380,N,01104.04473,E,1,06,2.11,291.1,M,47.0,M,,*5F
00:01:35.564;A;$GPGSA,A,3,30,20,05,07,09,13,,,,,,,2.99,2.11,2.11*08
00:01:35.619;A;$GPGSV,2,1,07,05,53,292,43,07,54,062,43,09,21,098,28,13,36,280,43*7E
00:01:35.669;B;$SDDPT,0.79,0.00,100.0*5A
00:01:35.690;A;$GPGSV,2,2,07,20,61,234,44,22,09,170,,30,83,139,34*45
00:01:35.749;A;$GPGLL,4935.39380,N,01104.04473,E,155631.00,A,A*66
00:01:35.733;B;$SDDBT,2.59,f,0.79,M,0.43,F*31
00:01:35.811;B;$YXMTW,26.28,C*2C
00:01:36.284;I;$POSMVCC,5073,4873*5E
00:01:36.375;A;$GPRMC,155632.00,A,4935.39405,N,01104.04477,E,0.167,,200824,,,A*7E
00:01:36.447;A;$GPVTG,,T,,M,0.167,N,0.309,K,A*29
00:01:36.484;A;$GPGGA,155632.00,4935.39405,N,01104.04477,E,1,06,2.11,291.1,M,47.0,M,,*52
00:01:36.562;A;$GPGSA,A,3,30,20,05,07,09,13,,,,,,,2.99,2.11,2.11*08
00:01:36.619;A;$GPGSV,2,1,07,05,53,292,44,07,54,062,43,09,21,098,28,13,36,280,38*75
00:01:36.672;B;$SDDPT,0.79,0.00,100.0*5A
00:01:36.691;A;$GPGSV,2,2,07,20,61,234,43,22,09,170,,30,83,139,34*42
00:01:36.749;A;$GPGLL,4935.39405,N,01104.04477,E,155632.00,A,A*6B
00:01:36.737;B;$SDDBT,2.59,f,0.79,M,0.43,F*31
00:01:36.813;B;$YXMTW,26.25,C*21
00:01:37.286;I;$POSMVCC,5073,4873*5E
00:01:37.376;A;$GPRMC,155633.00,A,4935.39424,N,01104.04484,E,0.108,,200824,,,A*79
00:01:37.449;A;$GPVTG,,T,,M,0.108,N,0.201,K,A*29
00:01:37.484;A;$GPGGA,155633.00,4935.39424,N,01104.04484,E,1,06,2.11,291.2,M,47.0,M,,*5F
00:01:37.563;A;$GPGSA,A,3,30,20,05,07,09,13,,,,,,,2.99,2.11,2.11*08
00:01:37.619;A;$GPGSV,2,1,07,05,53,292,44,07,54,062,44,09,21,098,27,13,36,280,36*73
00:01:37.668;B;$SDDPT,0.79,0.00,100.0*5A
00:01:37.693;A;$GPGSV,2,2,07,20,61,234,41,22,09,170,,30,83,139,38*4C
00:01:37.748;A;$GPGLL,4935.39424,N,01104.04484,E,155633.00,A,A*65
00:01:37.734;B;$SDDBT,2.59,f,0.79,M,0.43,F*31
00:01:37.809;B;$YXMTW,26.22,C*26
00:01:38.288;I;$POSMVCC,5073,4873*5E
00:01:38.378;A;$GPRMC,155634.00,A,4935.39427,N,01104.04500,E,0.380,,200824,,,A*72
00:01:38.452;A;$GPVTG,,T,,M,0.380,N,0.704,K,A*2B
00:01:38.489;A;$GPGGA,155634.00,4935.39427,N,01104.04500,E,1,06,2.11,291.0,M,47.0,M,,*54
00:01:38.569;A;$GPGSA,A,3,30,20,05,07,09,13,,,,,,,2.99,2.11,2.11*08
00:01:38.623;A;$GPGSV,2,1,07,05,53,292,42,07,54,062,43,09,21,098,26,13,36,280,40*72
00:01:38.672;B;$SDDPT,0.78,0.00,100.0*5B
00:01:38.696;A;$GPGSV,2,2,07,20,61,234,40,22,09,170,,30,83,139,41*43
00:01:38.753;A;$GPGLL,4935.39427,N,01104.04500,E,155634.00,A,A*6C
00:01:38.737;B;$SDDBT,2.55,f,0.78,M,0.42,F*3D
00:01:38.811;B;$YXMTW,26.19,C*2E
00:01:39.289;I;$POSMVCC,5073,4873*5E
00:01:39.379;A;$GPRMC,155635.00,A,4935.39414,N,01104.04506,E,0.292,,200824,,,A*77
00:01:39.454;A;$GPVTG,,T,,M,0.292,N,0.540,K,A*2B
00:01:39.488;A;$GPGGA,155635.00,4935.39414,N,01104.04506,E,1,06,2.11,291.1,M,47.0,M,,*52
00:01:39.567;A;$GPGSA,A,3,30,20,05,07,09,13,,,,,,,2.98,2.11,2.11*09
00:01:39.623;A;$GPGSV,2,1,07,05,53,292,44,07,54,062,45,09,21,098,26,13,36,280,39*7C
00:01:39.668;B;$SDDPT,0.76,0.00,100.0*55
00:01:39.696;A;$GPGSV,2,2,07,20,61,234,40,22,09,170,,30,83,139,40*42
00:01:39.733;B;$SDDBT,2.49,f,0.76,M,0.41,F*3D
00:01:39.753;A;$GPGLL,4935.39414,N,01104.04506,E,155635.00,A,A*6B
00:01:39.809;B;$YXMTW,26.17,C*20
00:01:40.291;I;$POSMVCC,5073,4873*5E
00:01:40.380;A;$GPRMC,155636.00,A,4935.39402,N,01104.04507,E,0.065,,200824,,,A*78
00:01:40.453;A;$GPVTG,,T,,M,0.065,N,0.120,K,A*23
00:01:40.489;A;$GPGGA,155636.00,4935.39402,N,01104.04507,E,1,06,2.11,291.3,M,47.0,M,,*55
00:01:40.568;A;$GPGSA,A,3,30,20,05,07,09,13,,,,,,,2.98,2.11,2.11*09
00:01:40.624;A;$GPGSV,2,1,07,05,53,292,46,07,54,062,43,09,21,098,32,13,36,280,42*71
00:01:40.671;B;$SDDPT,0.79,0.00,100.0*5A
00:01:40.698;A;$GPGSV,2,2,07,20,61,234,36,22,09,170,,30,83,139,41*42
00:01:40.754;A;$GPGLL,4935.39402,N,01104.04507,E,155636.00,A,A*6E
00:01:40.734;B;$SDDBT,2.59,f,0.79,M,0.43,F*31
00:01:40.809;B;$YXMTW,26.14,C*23
00:01:41.292;I;$POSMVCC,5073,4873*5E
00:01:41.374;A;$GPRMC,155637.00,A,4935.39383,N,01104.04504,E,0.113,,200824,,,A*74
00:01:41.448;A;$GPVTG,,T,,M,0.113,N,0.209,K,A*2B
00:01:41.485;A;$GPGGA,155637.00,4935.39383,N,01104.04504,E,1,06,2.11,290.7,M,47.0,M,,*5C
00:01:41.563;A;$GPGSA,A,3,30,20,05,07,09,13,,,,,,,2.98,2.11,2.11*09
00:01:41.619;A;$GPGSV,2,1,07,05,53,292,44,07,54,062,43,09,21,098,32,13,36,280,44*75
00:01:41.672;B;$SDDPT,0.76,0.00,100.0*55
00:01:41.692;A;$GPGSV,2,2,07,20,61,234,32,22,09,170,,30,83,139,43*44
00:01:41.749;A;$GPGLL,4935.39383,N,01104.04504,E,155637.00,A,A*62
00:01:41.737;B;$SDDBT,2.49,f,0.76,M,0.41,F*3D
00:01:41.812;B;$YXMTW,26.11,C*26
00:01:42.292;I;$POSMVCC,5073,4873*5E
00:01:42.379;A;$GPRMC,155638.00,A,4935.39366,N,01104.04496,E,0.141,,200824,,,A*7D
00:01:42.453;A;$GPVTG,,T,,M,0.141,N,0.261,K,A*22
00:01:42.490;A;$GPGGA,155638.00,4935.39366,N,01104.04496,E,1,06,2.11,290.4,M,47.0,M,,*51
00:01:42.565;A;$GPGSA,A,3,30,20,05,07,09,13,,,,,,,2.98,2.11,2.11*09
00:01:42.622;A;$GPGSV,2,1,07,05,53,292,39,07,54,062,44,09,21,098,27,13,36,280,45*7D
00:01:42.669;B;$SDDPT,0.79,0.00,100.0*5A
00:01:42.696;A;$GPGSV,2,2,07,20,61,234,35,22,09,170,,30,83,139,39*4E
00:01:42.753;A;$GPGLL,4935.39366,N,01104.04496,E,155638.00,A,A*6C
00:01:42.733;B;$SDDBT,2.59,f,0.79,M,0.43,F*31
00:01:42.809;B;$YXMTW,26.09,C*2F
00:01:43.293;I;$POSMVCC,5073,4873*5E
00:01:43.376;A;$GPRMC,155639.00,A,4935.39357,N,01104.04491,E,0.174,,200824,,,A*7F
00:01:43.449;A;$GPVTG,,T,,M,0.174,N,0.322,K,A*22
00:01:43.485;A;$GPGGA,155639.00,4935.39357,N,01104.04491,E,1,06,2.11,290.1,M,47.0,M,,*50
00:01:43.564;A;$GPGSA,A,3,30,20,05,07,09,13,,,,,,,2.98,2.11,2.11*09
00:01:43.620;A;$GPGSV,2,1,07,05,53,292,43,07,54,062,41,09,21,098,29,13,36,280,36*7F
00:01:43.671;B;$SDDPT,0.75,0.00,100.0*56
00:01:43.693;A;$GPGSV,2,2,07,20,61,234,42,22,09,170,,30,83,139,37*40
00:01:43.750;A;$GPGLL,4935.39357,N,01104.04491,E,155639.00,A,A*68
00:01:43.737;B;$SDDBT,2.46,f,0.75,M,0.41,F*31
00:01:43.810;B;$YXMTW,26.07,C*21
00:01:44.294;I;$POSMVCC,5073,4873*5E
00:01:44.377;A;$GPRMC,155640.00,A,4935.39359,N,01104.04480,E,0.098,,200824,,,A*7C
00:01:44.450;A;$GPVTG,,T,,M,0.098,N,0.181,K,A*2A
00:01:44.485;A;$GPGGA,155640.00,4935.39359,N,01104.04480,E,1,06,2.11,290.3,M,47.0,M,,*52
00:01:44.565;A;$GPGSA,A,3,30,20,05,07,09,13,,,,,,,2.98,2.11,2.11*09
00:01:44.621;A;$GPGSV,2,1,07,05,53,292,44,07,54,062,41,09,21,098,30,13,36,280,41*70
00:01:44.673;B;$SDDPT,0.75,0.00,100.0*56
00:01:44.694;A;$GPGSV,2,2,07,20,61,234,41,22,09,170,,30,83,139,37*43
00:01:44.751;A;$GPGLL,4935.39359,N,01104.04480,E,155640.00,A,A*68
00:01:44.738;B;$SDDBT,2.46,f,0.75,M,0.41,F*31
00:01:44.812;B;$YXMTW,26.04,C*22
00:01:45.296;I;$POSMVCC,5073,4873*5E
00:01:45.375;A;$GPRMC,155641.00,A,4935.39372,N,01104.04468,E,0.095,,200824,,,A*7F
00:01:45.451;A;$GPVTG,,T,,M,0.095,N,0.175,K,A*2C
00:01:45.486;A;$GPGGA,155641.00,4935.39372,N,01104.04468,E,1,06,2.11,290.9,M,47.0,M,,*56
00:01:45.564;A;$GPGSA,A,3,30,20,05,07,09,13,,,,,,,2.98,2.11,2.11*09
00:01:45.621;A;$GPGSV,2,1,07,05,53,292,44,07,54,062,42,09,21,098,30,13,36,280,40*72
00:01:45.669;B;$SDDPT,0.79,0.00,100.0*5A
00:01:45.693;A;$GPGSV,2,2,07,20,61,234,41,22,09,170,19,30,83,139,37*4B
00:01:45.753;A;$GPGLL,4935.39372,N,01104.04468,E,155641.00,A,A*66
00:01:45.734;B;$SDDBT,2.59,f,0.79,M,0.43,F*31
00:01:45.809;B;$YXMTW,26.02,C*24
00:01:46.298;I;$POSMVCC,5073,4873*5E
00:01:46.375;A;$GPRMC,155642.00,A,4935.39377,N,01104.04460,E,0.087,,200824,,,A*72
00:01:46.449;A;$GPVTG,,T,,M,0.087,N,0.161,K,A*2A
00:01:46.486;A;$GPGGA,155642.00,4935.39377,N,01104.04460,E,1,06,2.11,291.1,M,47.0,M,,*51
00:01:46.564;A;$GPGSA,A,3,30,20,05,07,09,13,,,,,,,2.98,2.11,2.11*09
00:01:46.618;A;$GPGSV,2,1,07,05,53,292,44,07,54,062,42,09,21,098,29,13,36,280,42*78
00:01:46.672;B;$SDDPT,0.82,0.00,100.0*5E
00:01:46.693;A;$GPGSV,2,2,07,20,61,234,39,22,09,170,,30,83,139,38*43
00:01:46.750;A;$GPGLL,4935.39377,N,01104.04460,E,155642.00,A,A*68
00:01:46.738;B;$SDDBT,2.69,f,0.82,M,0.44,F*31
00:01:46.813;B;$YXMTW,25.99,C*25
00:01:47.299;I;$POSMVCC,5073,4873*5E
00:01:47.376;A;$GPRMC,155643.00,A,4935.39390,N,01104.04447,E,0.034,,200824,,,A*77
00:01:47.448;A;$GPVTG,,T,,M,0.034,N,0.063,K,A*21
00:01:47.485;A;$GPGGA,155643.00,4935.39390,N,01104.04447,E,1,06,2.11,291.3,M,47.0,M,,*5E
00:01:47.563;A;$GPGSA,A,3,30,20,05,07,09,13,,,,,,,2.98,2.11,2.11*09
00:01:47.621;A;$GPGSV,2,1,07,05,53,292,43,07,54,062,42,09,21,098,30,13,36,280,42*77
00:01:47.667;B;$SDDPT,0.79,0.00,100.0*5A
00:01:47.693;A;$GPGSV,2,2,07,20,61,234,40,22,09,170,,30,83,139,39*4C
00:01:47.749;A;$GPGLL,4935.39390,N,01104.04447,E,155643.00,A,A*65
00:01:47.731;B;$SDDBT,2.59,f,0.79,M,0.43,F*31
00:01:47.808;B;$YXMTW,25.97,C*2B
00:01:48.300;I;$POSMVCC,5073,4873*5E
00:01:48.375;A;$GPRMC,155644.00,A,4935.39394,N,01104.04436,E,0.030,,200824,,,A*76
00:01:48.449;A;$GPVTG,,T,,M,0.030,N,0.055,K,A*20
00:01:48.484;A;$GPGGA,155644.00,4935.39394,N,01104.04436,E,1,06,2.11,291.5,M,47.0,M,,*5D
00:01:48.563;A;$GPGSA,A,3,30,20,05,07,09,13,,,,,,,2.98,2.11,2.11*09
00:01:48.619;A;$GPGSV,2,1,07,05,53,292,42,07,54,062,43,09,21,098,26,13,36,280,39*7C
00:01:48.669;B;$SDDPT,0.81,0.00,100.0*5D
00:01:48.691;A;$GPGSV,2,2,07,20,61,234,40,22,09,170,,30,83,139,34*41
00:01:48.749;A;$GPGLL,4935.39394,N,01104.04436,E,155644.00,A,A*60
00:01:48.735;B;$SDDBT,2.65,f,0.81,M,0.44,F*3E
00:01:48.813;B;$YXMTW,25.94,C*28
00:01:49.301;I;$POSMVCC,5073,4873*5E
00:01:49.376;A;$GPRMC,155645.00,A,4935.39383,N,01104.04429,E,0.081,,200824,,,A*75
00:01:49.450;A;$GPVTG,,T,,M,0.081,N,0.150,K,A*2E
00:01:49.487;A;$GPGGA,155645.00,4935.39383,N,01104.04429,E,1,06,2.11,291.1,M,47.0,M,,*50
00:01:49.565;A;$GPGSA,A,3,30,20,05,07,09,13,,,,,,,2.98,2.11,2.11*09
00:01:49.620;A;$GPGSV,2,1,07,05,53,292,41,07,54,062,43,09,21,098,22,13,36,280,41*74
00:01:49.673;B;$SDDPT,0.78,0.00,100.0*5B
00:01:49.693;A;$GPGSV,2,2,07,20,61,234,41,22,09,170,,30,83,139,34*40
00:01:49.751;A;$GPGLL,4935.39383,N,01104.04429,E,155645.00,A,A*69
00:01:49.737;B;$SDDBT,2.55,f,0.78,M,0.42,F*3D
00:01:49.813;B;$YXMTW,25.92,C*2E
00:01:50.302;I;$POSMVCC,5073,4873*5E
00:01:50.381;A;$GPRMC,155646.00,A,4935.39372,N,01104.04427,E,0.049,,200824,,,A*72
00:01:50.453;A;$GPVTG,,T,,M,0.049,N,0.091,K,A*26
00:01:50.489;A;$GPGGA,155646.00,4935.39372,N,01104.04427,E,1,06,2.11,290.6,M,47.0,M,,*55
00:01:50.568;A;$GPGSA,A,3,30,20,05,07,09,13,,,,,,,2.98,2.11,2.11*09
00:01:50.626;A;$GPGSV,2,1,07,05,53,292,41,07,54,062,41,09,21,098,16,13,36,280,43*73
00:01:50.670;B;$SDDPT,0.78,0.00,100.0*5B
00:01:50.696;A;$GPGSV,2,2,07,20,61,234,41,22,09,170,,30,83,139,37*43
00:01:50.754;A;$GPGLL,4935.39372,N,01104.04427,E,155646.00,A,A*6A
00:01:50.735;B;$SDDBT,2.55,f,0.78,M,0.42,F*3D
00:01:50.810;B;$YXMTW,25.90,C*2C
00:01:51.304;I;$POSMVCC,5073,4873*5E
00:01:51.375;A;$GPRMC,155647.00,A,4935.39364,N,01104.04427,E,0.119,,200824,,,A*70
00:01:51.447;A;$GPVTG,,T,,M,0.119,N,0.221,K,A*2B
00:01:51.484;A;$GPGGA,155647.00,4935.39364,N,01104.04427,E,1,06,2.11,290.1,M,47.0,M,,*54
00:01:51.561;A;$GPGSA,A,3,30,20,05,07,09,13,,,,,,,2.98,2.11,2.11*09
00:01:51.618;A;$GPGSV,2,1,07,05,53,292,39,07,54,062,41,09,21,098,17,13,36,280,43*7D
00:01:51.671;B;$SDDPT,0.78,0.00,100.0*5B
00:01:51.690;A;$GPGSV,2,2,07,20,61,234,41,22,09,170,,30,83,139,38*4C
00:01:51.748;A;$GPGLL,4935.39364,N,01104.04427,E,155647.00,A,A*6C
00:01:51.735;B;$SDDBT,2.55,f,0.78,M,0.42,F*3D
00:01:51.812;B;$YXMTW,25.87,C*2A
00:01:52.305;I;$POSMVCC,5073,4873*5E
00:01:52.374;A;$GPRMC,155648.00,A,4935.39360,N,01104.04423,E,0.031,,200824,,,A*74
00:01:52.449;A;$GPVTG,,T,,M,0.031,N,0.057,K,A*23
00:01:52.485;A;$GPGGA,155648.00,4935.39360,N,01104.04423,E,1,06,2.11,289.7,M,47.0,M,,*55
00:01:52.564;A;$GPGSA,A,3,30,20,05,07,09,13,,,,,,,2.98,2.11,2.11*09
00:01:52.618;A;$GPGSV,2,1,07,05,53,292,39,07,54,062,42,09,21,098,20,13,36,280,43*7A
00:01:52.667;B;$SDDPT,0.79,0.00,100.0*5A
00:01:52.693;A;$GPGSV,2,2,07,20,61,234,42,22,09,170,,30,83,139,39*4E
00:01:52.750;A;$GPGLL,4935.39360,N,01104.04423,E,155648.00,A,A*63
00:01:52.732;B;$SDDBT,2.59,f,0.79,M,0.43,F*31
00:01:52.807;B;$YXMTW,25.85,C*28
00:01:53.307;I;$POSMVCC,5073,4873*5E
00:01:53.375;A;$GPRMC,155649.00,A,4935.39367,N,01104.04417,E,0.167,,200824,,,A*77
00:01:53.449;A;$GPVTG,,T,,M,0.167,N,0.310,K,A*21
00:01:53.486;A;$GPGGA,155649.00,4935.39367,N,01104.04417,E,1,06,2.11,289.7,M,47.0,M,,*54
00:01:53.562;A;$GPGSA,A,3,30,20,05,07,09,13,,,,,,,2.98,2.11,2.11*09
00:01:53.620;A;$GPGSV,2,1,07,05,53,292,42,07,54,062,43,09,21,098,25,13,36,280,40*71
00:01:53.671;B;$SDDPT,0.81,0.00,100.0*5D
00:01:53.692;A;$GPGSV,2,2,07,20,61,234,42,22,09,170,,30,83,139,34*43
00:01:53.751;A;$GPGLL,4935.39367,N,01104.04417,E,155649.00,A,A*62
00:01:53.736;B;$SDDBT,2.65,f,0.81,M,0.44,F*3E
00:01:53.810;B;$YXMTW,25.82,C*2F
00:01:54.308;I;$POSMVCC,5073,4873*5E
00:01:54.373;A;$GPRMC,155650.00,A,4935.39385,N,01104.04408,E,0.104,,200824,,,A*78
00:01:54.448;A;$GPVTG,,T,,M,0.104,N,0.193,K,A*2D
00:01:54.486;A;$GPGGA,155650.00,4935.39385,N,01104.04408,E,1,06,2.11,290.3,M,47.0,M,,*52
00:01:54.562;A;$GPGSA,A,3,30,20,05,07,09,13,,,,,,,2.98,2.11,2.11*09
00:01:54.619;A;$GPGSV,2,1,07,05,53,292,42,07,54,062,44,09,21,098,29,13,36,280,39*74
00:01:54.674;B;$SDDPT,0.79,0.00,100.0*5A
00:01:54.691;A;$GPGSV,2,2,07,20,61,234,42,22,09,170,,30,83,139,31*46
00:01:54.749;A;$GPGLL,4935.39385,N,01104.04408,E,155650.00,A,A*68
00:01:54.739;B;$SDDBT,2.59,f,0.79,M,0.43,F*31
00:01:54.813;B;$YXMTW,25.80,C*2D
00:01:55.310;I;$POSMVCC,5073,4873*5E
00:01:55.374;A;$GPRMC,155651.00,A,4935.39413,N,01104.04398,E,0.010,,200824,,,A*7B
00:01:55.447;A;$GPVTG,,T,,M,0.010,N,0.019,K,A*2A
00:01:55.482;A;$GPGGA,155651.00,4935.39413,N,01104.04398,E,1,06,2.11,290.9,M,47.0,M,,*5F
00:01:55.560;A;$GPGSA,A,3,30,20,05,07,09,13,,,,,,,2.98,2.11,2.11*09
00:01:55.617;A;$GPGSV,2,1,07,05,53,292,42,07,54,062,44,09,21,098,30,13,36,280,37*72
00:01:55.670;B;$SDDPT,0.81,0.00,100.0*5D
00:01:55.689;A;$GPGSV,2,2,07,20,61,234,43,22,09,170,,30,83,139,32*44
00:01:55.748;A;$GPGLL,4935.39413,N,01104.04398,E,155651.00,A,A*6F
00:01:55.734;B;$SDDBT,2.65,f,0.81,M,0.44,F*3E
00:01:55.809;B;$YXMTW,25.78,C*2A
00:01:56.313;I;$POSMVCC,5073,4873*5E
00:01:56.376;A;$GPRMC,155652.00,A,4935.39437,N,01104.04389,E,0.107,,200824,,,A*79
00:01:56.450;A;$GPVTG,,T,,M,0.107,N,0.198,K,A*25
00:01:56.487;A;$GPGGA,155652.00,4935.39437,N,01104.04389,E,1,06,2.10,291.6,M,47.0,M,,*55
00:01:56.563;A;$GPGSA,A,3,30,20,05,07,09,13,,,,,,,2.98,2.10,2.11*08
00:01:56.620;A;$GPGSV,2,1,07,05,53,292,41,07,54,062,44,09,21,098,29,13,36,280,36*78
00:01:56.675;B;$SDDPT,0.84,0.00,100.0*58
00:01:56.696;A;$GPGSV,2,2,07,20,61,234,42,22,09,170,,30,83,139,32*45
00:01:56.751;A;$GPGLL,4935.39437,N,01104.04389,E,155652.00,A,A*6A
00:01:56.739;B;$SDDBT,2.75,f,0.84,M,0.45,F*3B
00:01:56.815;B;$YXMTW,25.76,C*24
00:01:57.315;I;$POSMVCC,5073,4873*5E
00:01:57.374;A;$GPRMC,155653.00,A,4935.39445,N,01104.04385,E,0.081,,200824,,,A*7E
00:01:57.448;A;$GPVTG,,T,,M,0.081,N,0.151,K,A*2F
00:01:57.485;A;$GPGGA,155653.00,4935.39445,N,01104.04385,E,1,06,2.10,292.0,M,47.0,M,,*58
00:01:57.563;A;$GPGSA,A,3,30,20,05,07,09,13,,,,,,,2.98,2.10,2.11*08
00:01:57.619;A;$GPGSV,2,1,07,05,53,292,41,07,54,062,43,09,21,098,27,13,36,280,39*7E
00:01:57.667;B;$SDDPT,0.78,0.00,100.0*5B
00:01:57.691;A;$GPGSV,2,2,07,20,61,234,41,22,09,170,,30,83,139,35*41
00:01:57.749;A;$GPGLL,4935.39445,N,01104.04385,E,155653.00,A,A*62
00:01:57.733;B;$SDDBT,2.55,f,0.78,M,0.42,F*3D
00:01:57.807;B;$YXMTW,25.73,C*21
00:01:58.318;I;$POSMVCC,5073,4873*5E
00:01:58.376;A;$GPRMC,155654.00,A,4935.39452,N,01104.04377,E,0.129,,200824,,,A*71
00:01:58.448;A;$GPVTG,,T,,M,0.129,N,0.238,K,A*20
00:01:58.484;A;$GPGGA,155654.00,4935.39452,N,01104.04377,E,1,06,2.10,292.2,M,47.0,M,,*56
00:01:58.563;A;$GPGSA,A,3,30,20,05,07,09,13,,,,,,,2.98,2.10,2.11*08
00:01:58.620;A;$GPGSV,2,1,07,05,53,292,41,07,54,062,42,09,21,098,25,13,36,280,41*72
00:01:58.671;B;$SDDPT,0.79,0.00,100.0*5A
00:01:58.691;A;$GPGSV,2,2,07,20,61,234,42,22,09,170,,30,83,139,35*42
00:01:58.750;A;$GPGLL,4935.39452,N,01104.04377,E,155654.00,A,A*6E
00:01:58.735;B;$SDDBT,2.59,f,0.79,M,0.43,F*31
00:01:58.809;B;$YXMTW,25.71,C*23
00:01:59.319;I;$POSMVCC,5073,4873*5E
00:01:59.374;A;$GPRMC,155655.00,A,4935.39458,N,01104.04370,E,0.079,,200824,,,A*79
00:01:59.448;A;$GPVTG,,T,,M,0.079,N,0.146,K,A*2E
00:01:59.485;A;$GPGGA,155655.00,4935.39458,N,01104.04370,E,1,06,2.10,292.2,M,47.0,M,,*5A
00:01:59.562;A;$GPGSA,A,3,30,20,05,07,09,13,,,,,,,2.98,2.10,2.11*08
00:01:59.618;A;$GPGSV,2,1,07,05,53,292,41,07,54,062,42,09,21,098,24,13,36,280,40*72
00:01:59.673;B;$SDDPT,0.78,0.00,100.0*5B
00:01:59.694;A;$GPGSV,2,2,07,20,61,234,42,22,09,170,,30,83,139,35*42
00:01:59.747;A;$GPGLL,4935.39458,N,01104.04370,E,155655.00,A,A*62
00:01:59.737;B;$SDDBT,2.55,f,0.78,M,0.42,F*3D
00:01:59.812;B;$YXMTW,25.69,C*2A
00:02:00.322;I;$POSMVCC,5073,4873*5E
00:02:00.375;A;$GPRMC,155656.00,A,4935.39460,N,01104.04364,E,0.076,,200824,,,A*7B
00:02:00.451;A;$GPVTG,,T,,M,0.076,N,0.141,K,A*26
00:02:00.484;A;$GPGGA,155656.00,4935.39460,N,01104.04364,E,1,06,2.10,292.2,M,47.0,M,,*57
00:02:00.562;A;$GPGSA,A,3,30,20,05,07,09,13,,,,,,,2.98,2.10,2.11*08
00:02:00.619;A;$GPGSV,2,1,07,05,53,292,40,07,54,062,43,09,21,098,19,13,36,280,40*7C
00:02:00.668;B;$SDDPT,0.79,0.00,100.0*5A
00:02:00.691;A;$GPGSV,2,2,07,20,61,233,42,22,09,170,,30,83,139,37*47
00:02:00.750;A;$GPGLL,4935.39460,N,01104.04364,E,155656.00,A,A*6F
00:02:00.732;B;$SDDBT,2.59,f,0.79,M,0.43,F*31
00:02:00.809;B;$YXMTW,25.66,C*25
00:02:01.324;I;$POSMVCC,5073,4873*5E
00:02:01.374;A;$GPRMC,155657.00,A,4935.39461,N,01104.04363,E,0.227,,200824,,,A*7A
00:02:01.448;A;$GPVTG,,T,,M,0.227,N,0.421,K,A*23
00:02:01.485;A;$GPGGA,155657.00,4935.39461,N,01104.04363,E,1,06,2.10,291.8,M,47.0,M,,*59
00:02:01.563;A;$GPGSA,A,3,30,20,05,07,09,13,,,,,,,2.98,2.10,2.11*08
00:02:01.617;A;$GPGSV,2,1,07,05,53,292,40,07,54,062,43,09,21,098,17,13,36,280,43*71
00:02:01.670;B;$SDDPT,0.78,0.00,100.0*5B
00:02:01.692;A;$GPGSV,2,2,07,20,61,233,39,22,09,170,22,30,83,139,39*45
00:02:01.750;A;$GPGLL,4935.39461,N,01104.04363,E,155657.00,A,A*68
00:02:01.735;B;$SDDBT,2.55,f,0.78,M,0.42,F*3D
00:02:01.811;B;$YXMTW,25.64,C*27
00:02:02.326;I;$POSMVCC,5073,4873*5E
00:02:02.374;A;$GPRMC,155658.00,A,4935.39456,N,01104.04376,E,0.322,,200824,,,A*71
00:02:02.448;A;$GPVTG,,T,,M,0.322,N,0.596,K,A*2A
00:02:02.485;A;$GPGGA,155658.00,4935.39456,N,01104.04376,E,1,06,2.10,291.0,M,47.0,M,,*5E
00:02:02.563;A;$GPGSA,A,3,30,20,05,07,09,13,,,,,,,2.98,2.10,2.11*08
00:02:02.617;A;$GPGSV,2,1,07,05,53,292,40,07,54,062,43,09,21,098,28,13,36,280,38*71
00:02:02.667;B;$SDDPT,0.76,0.00,100.0*55
00:02:02.693;A;$GPGSV,2,2,07,20,61,233,43,22,09,170,19,30,83,139,45*4B
00:02:02.752;A;$GPGLL,4935.39456,N,01104.04376,E,155658.00,A,A*67
00:02:02.732;B;$SDDBT,2.49,f,0.76,M,0.41,F*3D
00:02:02.807;B;$YXMTW,25.61,C*22
00:02:03.326;I;$POSMVCC,5073,4873*5E
00:02:03.376;A;$GPRMC,155659.00,A,4935.39462,N,01104.04393,E,0.439,,200824,,,A*71
00:02:03.449;A;$GPVTG,,T,,M,0.439,N,0.813,K,A*27
00:02:03.486;A;$GPGGA,155659.00,4935.39462,N,01104.04393,E,1,06,2.10,290.4,M,47.0,M,,*56
00:02:03.566;A;$GPGSA,A,3,30,20,05,07,09,13,,,,,,,2.98,2.10,2.11*08
00:02:03.620;A;$GPGSV,2,1,07,05,53,292,36,07,54,062,44,09,21,098,28,13,36,280,44*7C
00:02:03.670;B;$SDDPT,0.73,0.00,100.0*50
00:02:03.692;A;$GPGSV,2,2,07,20,61,233,42,22,09,170,17,30,83,139,40*41
00:02:03.752;A;$GPGLL,4935.39462,N,01104.04393,E,155659.00,A,A*6A
00:02:03.735;B;$SDDBT,2.39,f,0.73,M,0.39,F*30
00:02:03.809;B;$YXMTW,25.59,C*29
00:02:04.328;I;$POSMVCC,5073,4873*5E
00:02:04.377;A;$GPRMC,155700.00,A,4935.39451,N,01104.04414,E,0.446,,200824,,,A*7C
00:02:04.450;A;$GPVTG,,T,,M,0.446,N,0.826,K,A*29
00:02:04.485;A;$GPGGA,155700.00,4935.39451,N,01104.04414,E,1,06,2.10,290.1,M,47.0,M,,*56
00:02:04.563;A;$GPGSA,A,3,30,20,05,07,09,13,,,,,,,2.98,2.10,2.11*08
00:02:04.620;A;$GPGSV,2,1,07,05,53,292,44,07,54,062,43,09,21,098,21,13,36,280,41*72
00:02:04.673;B;$SDDPT,0.57,0.00,100.0*56
00:02:04.692;A;$GPGSV,2,2,07,20,61,233,36,22,09,170,16,30,83,139,41*42
00:02:04.752;A;$GPGLL,4935.39451,N,01104.04414,E,155700.00,A,A*6F
00:02:04.738;B;$SDDBT,1.87,f,0.57,M,0.31,F*38
