00:01:01.192;I;$POSMST,Start NMEA Logger,V 0.1.12*01
00:01:01.202;A;$SDDPT,2.5,*7E
00:01:01.204;B;“’šr²’š’br±01255.8569,E,110916,A
00:01:01.207;A;$SDDBT,8.4,f,2.5,M,1.4,F*08
00:01:01.208;B;$GPGGA,110916,5223.6232,N,01255.8569,E,1,9,1.
00:01:01.210;I;$POSMGYR,-274,-66,293*68
00:01:01.210;I;$POSMACC,2000,748,19704*6E
00:01:01.358;A;$YXMTW,15.9,C*1F
00:01:01.361;B;$GPVTG,,T,319.6,M,0.0,N,0.1,K
00:01:01.364;A;$SDDPT,2.5,*7E
00:01:01.366;B;$GPZDA,110944,03,05,2020,-2,0
00:01:01.369;A;$SDDBT,8.4,f,2.5,M,1.4,F*08
00:01:01.374;A;$YXMTW,15.9,C*1F
00:01:01.378;A;$$SDDPT,2.5,*7E
00:01:01.381;A;$SDDBT,8.4,f,2.5,M,1.4,F*08
00:01:01.372;B;$GPRMC,110944,A,5223.6245,N,01255.8563,E,0.0,323.6,030520,4,E*6D
00:01:02.003;B;$GPGLL,5223.6246,N,01255.8563,E,110945,A
00:01:02.210;I;$POSMGYR,-245,-49,292*66
00:01:02.210;I;$POSMACC,2032,672,19808*64
00:01:02.091;B;$GPGGA,110945,5223.6246,N,01255.8563,E,1,7,2.8,24,M,45,M,,
00:01:02.201;A;$SDDPT,2.5,*7E
00:01:02.223;B;$GPVTG,,T,322.3,M,0.0,N,0.1,K
00:01:02.237;A;$SDDBT,8.4,f,2.5,M,1.4,F*08
00:01:02.280;B;$GPZDA,110945,03,05,2020,-2,0
00:01:02.307;A;$YXMTW,15.9,C*1F
00:01:02.347;B;$GPRMC,110945,A,5223.6246,N,01255.8563,E,0.0,326.3,030520,4,E*6F
00:01:02.997;B;$GPGLL,5223.6247,N,01255.8562,E,110946,A
00:01:03.086;B;$GPGGA,110946,5223.6247,N,01255.8562,E,1,7,1.9,24,M,45,M,,
00:01:03.212;I;$POSMGYR,-295,17,300*47
00:01:03.212;I;$POSMACC,1968,744,19712*61
00:01:03.202;A;$SDDPT,2.5,*7E
00:01:03.210;B;$GPVTG,,T,322.7,M,0.0,N,0.1,K
00:01:03.241;A;$SDDBT,8.4,f,2.5,M,1.4,F*08
00:01:03.275;B;$GPZDA,110946,03,05,2020,-2,0
00:01:03.308;A;$YXMTW,15.9,C*1F
00:01:03.340;B;$GPRMC,110946,A,5223.6247,N,01255.8562,E,0.0,326.7,030520,4,E*68
00:01:04.003;B;$GPGLL,5223.6248,N,01255.8561,E,110947,A
00:01:04.092;B;$GPGGA,110947,5223.6248,N,01255.8561,E,1,8,1.9,24,M,45,M,,
00:01:04.216;I;$POSMGYR,-251,-51,292*6A
00:01:04.216;I;$POSMACC,2136,728,19900*66
00:01:04.205;A;$SDDPT,2.5,*7E
00:01:04.216;B;$GPVTG,,T,323.7,M,0.0,N,0.0,K
00:01:04.244;A;$SDDBT,8.4,f,2.5,M,1.4,F*08
00:01:04.280;B;$GPZDA,110947,03,05,2020,-2,0
00:01:04.310;A;$YXMTW,15.9,C*1F
00:01:04.346;B;$GPRMC,110947,A,5223.6248,N,01255.8561,E,0.0,327.7,030520,4,E*64
00:01:04.997;B;$GPGLL,5223.6249,N,01255.8561,E,110948,A
00:01:05.086;B;$GPGGA,110948,5223.6249,N,01255.8561,E,1,8,1.9,24,M,45,M,,
00:01:05.217;I;$POSMGYR,-223,-59,306*6B
00:01:05.217;I;$POSMACC,1956,788,19724*69
00:01:05.201;A;$SDDPT,2.5,*7E
00:01:05.210;B;$GPVTG,,T,323.3,M,0.0,N,0.0,K
00:01:05.239;A;$SDDBT,8.4,f,2.5,M,1.4,F*08
00:01:05.275;B;$GPZDA,110948,03,05,2020,-2,0
00:01:05.307;A;$YXMTW,15.9,C*1F
00:01:05.340;B;$GPRMC,110948,A,5223.6249,N,01255.8561,E,0.0,327.3,030520,4,E*6E
00:01:06.003;B;$GPGLL,5223.6250,N,01255.8560,E,110949,A
00:01:06.089;B;$GPGGA,110949,5223.6250,N,01255.8560,E,1,8,1.9,24,M,45,M,,
00:01:06.221;I;$POSMGYR,-293,3,285*78
00:01:06.221;I;$POSMACC,2100,740,19812*6F
00:01:06.204;A;$SDDPT,2.5,*7E
00:01:06.215;B;$GPVTG,,T,333.9,M,0.0,N,0.0,K
00:01:06.242;A;$SDDBT,8.4,f,2.5,M,1.4,F*08
00:01:06.281;B;$GPZDA,110949,03,05,2020,-2,0
00:01:06.309;A;$YXMTW,15.9,C*1F
00:01:06.345;B;$GPRMC,110949,A,5223.6250,N,01255.8560,E,0.0,337.9,030520,4,E*6D
00:01:06.998;B;$GPGLL,5223.6250,N,01255.8560,E,110950,A
00:01:07.087;B;$GPGGA,110950,5223.6250,N,01255.8560,E,1,8,1.9,24,M,45,M,,
00:01:07.224;I;$POSMGYR,-249,-11,288*6C
00:01:07.224;I;$POSMACC,1872,796,19772*62
00:01:07.201;A;$SDDPT,2.5,*7E
00:01:07.211;B;$GPVTG,,T,314.1,M,0.0,N,0.0,K
00:01:07.236;A;$SDDBT,8.4,f,2.5,M,1.4,F*08
00:01:07.275;B;$GPZDA,110950,03,05,2020,-2,0
00:01:07.305;A;$YXMTW,15.9,C*1F
00:01:07.339;B;$GPRMC,110950,A,5223.6250,N,01255.8560,E,0.0,318.1,030520,4,E*60
00:01:08.003;B;$GPGLL,5223.6251,N,01255.8560,E,110951,A
00:01:08.089;B;$GPGGA,110951,5223.6251,N,01255.8560,E,1,8,2.3,24,M,45,M,,
00:01:08.225;I;$POSMGYR,-234,-60,300*61
00:01:08.225;I;$POSMACC,2076,864,19792*61
00:01:08.202;A;$SDDPT,2.5,*7E
00:01:08.216;B;$GPVTG,,T,309.8,M,0.0,N,0.0,K
00:01:08.240;A;$SDDBT,8.4,f,2.5,M,1.4,F*08
00:01:08.281;B;$GPZDA,110951,03,05,2020,-2,0
00:01:08.306;A;$YXMTW,15.9,C*1F
00:01:08.344;B;$GPRMC,110951,A,5223.6251,N,01255.8560,E,0.0,313.8,030520,4,E*62
00:01:08.998;B;$GPGLL,5223.6252,N,01255.8559,E,110952,A
00:01:09.087;B;$GPGGA,110952,5223.6252,N,01255.8559,E,1,8,1.9,25,M,45,M,,
00:01:09.226;I;$POSMGYR,-268,26,292*4D
00:01:09.226;I;$POSMACC,2036,744,19792*68
00:01:09.206;A;$SDDPT,2.5,*7E
00:01:09.211;B;$GPVTG,,T,305.0,M,0.0,N,0.0,K
00:01:09.243;A;$SDDBT,8.4,f,2.5,M,1.4,F*08
00:01:09.275;B;$GPZDA,110952,03,05,2020,-2,0
00:01:09.310;A;$YXMTW,15.9,C*1F
00:01:09.340;B;$GPRMC,110952,A,5223.6252,N,01255.8559,E,0.0,309.0,030520,4,E*6B
00:01:10.001;B;$GPGLL,5223.6253,N,01255.8558,E,110953,A
00:01:10.090;B;$GPGGA,110953,5223.6253,N,01255.8558,E,1,9,1.6,25,M,45,M,,
00:01:10.227;I;$POSMGYR,-265,-27,327*63
00:01:10.227;I;$POSMACC,1912,724,19836*63
00:01:10.200;A;$SDDPT,2.5,*7E
00:01:10.216;B;$GPVTG,,T,299.0,M,0.0,N,0.0,K
00:01:10.240;A;$SDDBT,8.4,f,2.5,M,1.4,F*08
00:01:10.279;B;$GPZDA,110953,03,05,2020,-2,0
00:01:10.306;A;$YXMTW,15.9,C*1F
00:01:10.346;B;$GPRMC,110953,A,5223.6253,N,01255.8558,E,0.0,303.0,030520,4,E*60
00:01:10.999;B;$GPGLL,5223.6253,N,01255.8557,E,110954,A
00:01:11.085;B;$GPGGA,110954,5223.6253,N,01255.8557,E,1,9,1.6,25,M,45,M,,
00:01:11.229;I;$POSMGYR,-236,-68,289*6B
00:01:11.229;I;$POSMACC,1924,724,19764*6E
00:01:11.203;A;$SDDPT,2.5,*7E
00:01:11.211;B;$GPVTG,,T,290.1,M,0.0,N,0.0,K
00:01:11.241;A;$SDDBT,8.4,f,2.5,M,1.4,F*08
00:01:11.276;B;$GPZDA,110954,03,05,2020,-2,0
00:01:11.308;A;$YXMTW,15.9,C*1F
00:01:11.340;B;$GPRMC,110954,A,5223.6253,N,01255.8557,E,0.0,294.1,030520,4,E*66
00:01:12.001;B;$GPGLL,5223.6255,N,01255.8556,E,110955,A
00:01:12.090;B;$GPGGA,110955,5223.6255,N,01255.8556,E,1,9,1.6,25,M,45,M,,
00:01:12.232;I;$POSMGYR,-276,-7,289*56
00:01:12.232;I;$POSMACC,2088,796,19608*60
00:01:12.200;A;$SDDPT,2.5,*7E
00:01:12.214;B;$GPVTG,,T,298.1,M,0.0,N,0.0,K
00:01:12.245;A;$SDDBT,8.5,f,2.5,M,1.4,F*09
00:01:12.280;B;$GPZDA,110955,03,05,2020,-2,0
00:01:12.305;A;$YXMTW,15.9,C*1F
00:01:12.344;B;$GPRMC,110955,A,5223.6255,N,01255.8556,E,0.0,302.1,030520,4,E*6E
00:01:12.996;B;$GPGLL,5223.6256,N,01255.8556,E,110956,A
00:01:13.085;B;$GPGGA,110956,5223.6256,N,01255.8556,E,1,9,1.6,25,M,45,M,,
00:01:13.234;I;$POSMGYR,-274,5,307*7C
00:01:13.234;I;$POSMACC,1872,692,19748*6E
00:01:13.201;A;$SDDPT,2.5,*7E
00:01:13.209;B;$GPVTG,,T,286.6,M,0.0,N,0.0,K
00:01:13.246;A;$SDDBT,8.5,f,2.5,M,1.4,F*09
00:01:13.274;B;$GPZDA,110956,03,05,2020,-2,0
00:01:13.306;A;$YXMTW,15.9,C*1F
00:01:13.340;B;$GPRMC,110956,A,5223.6256,N,01255.8556,E,0.0,290.6,030520,4,E*63
00:01:14.002;B;$GPGLL,5223.6256,N,01255.8555,E,110957,A
00:01:14.091;B;$GPGGA,110957,5223.6256,N,01255.8555,E,1,9,1.6,25,M,45,M,,
00:01:14.234;I;$POSMGYR,-243,-75,288*64
00:01:14.234;I;$POSMACC,2044,760,19856*6C
00:01:14.205;A;$SDDPT,2.5,*7E
00:01:14.215;B;$GPVTG,,T,281.7,M,0.0,N,0.0,K
00:01:14.248;A;$SDDBT,8.5,f,2.5,M,1.4,F*09
00:01:14.279;B;$GPZDA,110957,03,05,2020,-2,0
00:01:14.309;A;$YXMTW,15.9,C*1F
00:01:14.344;B;$GPRMC,110957,A,5223.6256,N,01255.8555,E,0.0,285.7,030520,4,E*64
00:01:14.996;B;$GPGLL,5223.6257,N,01255.8554,E,110958,A
00:01:15.085;B;$GPGGA,110958,5223.6257,N,01255.8554,E,1,9,1.6,26,M,45,M,,
00:01:15.200;A;$SDDPT,2.5,*7E
00:01:15.237;I;$POSMGYR,-258,10,276*41
00:01:15.237;I;$POSMACC,2052,628,19800*65
00:01:15.209;B;$GPVTG,,T,290.2,M,0.0,N,0.0,K
00:01:15.237;A;$SDDBT,8.5,f,2.5,M,1.4,F*09
00:01:15.275;B;$GPZDA,110958,03,05,2020,-2,0
00:01:15.304;A;$YXMTW,15.9,C*1F
00:01:15.338;B;$GPRMC,110958,A,5223.6257,N,01255.8554,E,0.0,294.2,030520,4,E*6E
00:01:16.001;B;$GPGLL,5223.6257,N,01255.8554,E,110959,A
00:01:16.091;B;$GPGGA,110959,5223.6257,N,01255.8554,E,1,9,1.6,26,M,45,M,,
00:01:16.204;A;$SDDPT,2.5,*7E
00:01:16.240;I;$POSMGYR,-289,-18,311*68
00:01:16.240;I;$POSMACC,1940,872,19864*6F
00:01:16.215;B;$GPVTG,,T,291.6,M,0.0,N,0.0,K
00:01:16.240;A;$SDDBT,8.4,f,2.5,M,1.4,F*08
00:01:16.280;B;$GPZDA,110959,03,05,2020,-2,0
00:01:16.308;A;$YXMTW,15.9,C*1F
00:01:16.344;B;$GPRMC,110959,A,5223.6257,N,01255.8554,E,0.0,295.6,030520,4,E*6A
00:01:16.996;B;$GPGLL,5223.6257,N,01255.8554,E,111000,A
00:01:17.093;B;$GPGGA,111000,5223.6257,N,01255.8554,E,1,9,1.6,26,M,45,M,,
00:01:17.199;A;$SDDPT,2.5,*7E
00:01:17.241;I;$POSMGYR,-236,-56,297*69
00:01:17.241;I;$POSMACC,1960,816,19788*62
00:01:17.211;B;$GPVTG,,T,265.7,M,0.0,N,0.0,K
00:01:17.236;A;$SDDBT,8.5,f,2.5,M,1.4,F*09
00:01:17.276;B;$GPZDA,111000,03,05,2020,-2,0
00:01:17.303;A;$YXMTW,15.9,C*1F
00:01:17.339;B;$GPRMC,111000,A,5223.6257,N,01255.8554,E,0.0,269.7,030520,4,E*6C
00:01:18.003;B;$GPGLL,5223.6257,N,01255.8554,E,111001,A
00:01:18.093;B;$GPGGA,111001,5223.6257,N,01255.8554,E,1,9,1.6,26,M,45,M,,
00:01:18.202;A;$SDDPT,2.5,*7E
00:01:18.242;I;$POSMGYR,-250,-29,296*60
00:01:18.242;I;$POSMACC,2088,816,19724*68
00:01:18.215;B;$GPVTG,,T,253.3,M,0.0,N,0.0,K
00:01:18.239;A;$SDDBT,8.4,f,2.5,M,1.4,F*08
00:01:18.279;B;$GPZDA,111001,03,05,2020,-2,0
00:01:18.307;A;$YXMTW,15.9,C*1F
00:01:18.344;B;$GPRMC,111001,A,5223.6257,N,01255.8554,E,0.0,257.3,030520,4,E*64
00:01:18.997;B;$GPGLL,5223.6257,N,01255.8554,E,111002,A
00:01:19.086;B;$GPGGA,111002,5223.6257,N,01255.8554,E,1,9,1.6,26,M,45,M,,
00:01:19.205;A;$SDDPT,2.5,*7E
00:01:19.244;I;$POSMGYR,-297,2,298*71
00:01:19.244;I;$POSMACC,1972,740,19688*6C
00:01:19.211;B;$GPVTG,,T,254.5,M,0.0,N,0.0,K
00:01:19.241;A;$SDDBT,8.5,f,2.5,M,1.4,F*09
00:01:19.273;B;$GPZDA,111002,03,05,2020,-2,0
00:01:19.308;A;$YXMTW,15.9,C*1F
00:01:19.340;B;$GPRMC,111002,A,5223.6257,N,01255.8554,E,0.0,258.5,030520,4,E*6E
00:01:20.001;B;$GPGLL,5223.6257,N,01255.8554,E,111003,A
00:01:20.090;B;$GPGGA,111003,5223.6257,N,01255.8554,E,1,9,1.6,26,M,45,M,,
00:01:20.199;A;$SDDPT,2.5,*7E
00:01:20.247;I;$POSMGYR,-250,-46,303*64
00:01:20.247;I;$POSMACC,1920,744,19760*68
00:01:20.215;B;$GPVTG,,T,248.7,M,0.0,N,0.0,K
00:01:20.238;A;$SDDBT,8.4,f,2.5,M,1.4,F*08
00:01:20.278;B;$GPZDA,111003,03,05,2020,-2,0
00:01:20.306;A;$YXMTW,15.9,C*1F
00:01:20.345;B;$GPRMC,111003,A,5223.6257,N,01255.8554,E,0.0,252.7,030520,4,E*67
00:01:20.998;B;$GPGLL,5223.6257,N,01255.8553,E,111004,A
00:01:21.084;B;$GPGGA,111004,5223.6257,N,01255.8553,E,1,9,1.6,27,M,45,M,,
00:01:21.203;A;$SDDPT,2.5,*7E
00:01:21.249;I;$POSMGYR,-251,-51,297*6F
00:01:21.249;I;$POSMACC,2140,784,19696*61
00:01:21.212;B;$GPVTG,,T,219.4,M,0.0,N,0.0,K
00:01:21.240;A;$SDDBT,8.5,f,2.5,M,1.4,F*09
00:01:21.274;B;$GPZDA,111004,03,05,2020,-2,0
00:01:21.306;A;$YXMTW,16.0,C*15
00:01:21.339;B;$GPRMC,111004,A,5223.6257,N,01255.8553,E,0.0,223.4,030520,4,E*62
00:01:22.001;B;$GPGLL,5223.6258,N,01255.8553,E,111005,A
00:01:22.091;B;$GPGGA,111005,5223.6258,N,01255.8553,E,1,9,1.6,27,M,45,M,,
00:01:22.198;A;$SDDPT,2.5,*7E
00:01:22.250;I;$POSMGYR,-254,23,285*41
00:01:22.250;I;$POSMACC,2000,832,19852*60
00:01:22.215;B;$GPVTG,,T,218.3,M,0.0,N,0.0,K
00:01:22.237;A;$SDDBT,8.4,f,2.5,M,1.4,F*08
00:01:22.280;B;$GPZDA,111005,03,05,2020,-2,0
00:01:22.304;A;$YXMTW,16.0,C*15
00:01:22.345;B;$GPRMC,111005,A,5223.6258,N,01255.8553,E,0.0,222.3,030520,4,E*6A
00:01:22.996;B;$GPGLL,5223.6258,N,01255.8553,E,111006,A
00:01:23.085;B;$GPGGA,111006,5223.6258,N,01255.8553,E,1,9,1.6,27,M,45,M,,
00:01:23.202;A;$SDDPT,2.5,*7E
00:01:23.251;I;$POSMGYR,-284,-63,291*60
00:01:23.251;I;$POSMACC,2000,752,19780*69
00:01:23.211;B;$GPVTG,,T,223.9,M,0.0,N,0.0,K
00:01:23.238;A;$SDDBT,8.4,f,2.5,M,1.4,F*08
00:01:23.275;B;$GPZDA,111006,03,05,2020,-2,0
00:01:23.305;A;$YXMTW,16.0,C*15
00:01:23.339;B;$GPRMC,111006,A,5223.6258,N,01255.8553,E,0.0,227.9,030520,4,E*66
00:01:24.001;B;$GPGLL,5223.6258,N,01255.8552,E,111007,A
00:01:24.090;B;$GPGGA,111007,5223.6258,N,01255.8552,E,1,9,1.6,27,M,45,M,,
00:01:24.203;A;$SDDPT,2.5,*7E
00:01:24.252;I;$POSMGYR,-218,-41,295*61
00:01:24.252;I;$POSMACC,2008,680,19736*62
00:01:24.214;B;$GPVTG,,T,202.9,M,0.0,N,0.0,K
00:01:24.241;A;$SDDBT,8.5,f,2.5,M,1.4,F*09
00:01:24.279;B;$GPZDA,111007,03,05,2020,-2,0
00:01:24.308;A;$YXMTW,16.0,C*15
00:01:24.342;B;$GPRMC,111007,A,5223.6258,N,01255.8552,E,0.0,206.9,030520,4,E*65
00:01:24.997;B;$GPGLL,5223.6259,N,01255.8552,E,111008,A
00:01:25.086;B;$GPGGA,111008,5223.6259,N,01255.8552,E,1,9,1.6,27,M,45,M,,
00:01:25.199;A;$SDDPT,2.5,*7E
00:01:25.254;I;$POSMGYR,-310,1,291*75
00:01:25.254;I;$POSMACC,2016,872,19812*67
00:01:25.210;B;$GPVTG,,T,210.2,M,0.0,N,0.0,K
00:01:25.238;A;$SDDBT,8.4,f,2.5,M,1.4,F*08
00:01:25.273;B;$GPZDA,111008,03,05,2020,-2,0
00:01:25.303;A;$YXMTW,16.0,C*15
00:01:25.340;B;$GPRMC,111008,A,5223.6259,N,01255.8552,E,0.0,214.2,030520,4,E*63
00:01:26.002;B;$GPGLL,5223.6259,N,01255.8552,E,111009,A
00:01:26.089;B;$GPGGA,111009,5223.6259,N,01255.8552,E,1,9,1.6,27,M,45,M,,
00:01:26.201;A;$SDDPT,2.5,*7E
00:01:26.256;I;$POSMGYR,-263,-22,310*64
00:01:26.256;I;$POSMACC,1972,640,19832*62
00:01:26.215;B;$GPVTG,,T,223.1,M,0.0,N,0.0,K
00:01:26.241;A;$SDDBT,8.5,f,2.5,M,1.4,F*09
00:01:26.280;B;$GPZDA,111009,03,05,2020,-2,0
00:01:26.307;A;$YXMTW,16.0,C*15
00:01:26.343;B;$GPRMC,111009,A,5223.6259,N,01255.8552,E,0.0,227.1,030520,4,E*61
00:01:26.998;B;$GPGLL,5223.6259,N,01255.8551,E,111010,A
00:01:27.086;B;$GPGGA,111010,5223.6259,N,01255.8551,E,1,9,1.6,27,M,45,M,,
00:01:27.198;A;$SDDPT,2.7,*7C
00:01:27.258;I;$POSMGYR,-222,-39,314*6F
00:01:27.258;I;$POSMACC,2060,756,19816*6B
00:01:27.211;B;$GPVTG,,T,237.3,M,0.0,N,0.0,K
00:01:27.235;A;$SDDBT,9.2,f,2.7,M,1.5,F*0C
00:01:27.274;B;$GPZDA,111010,03,05,2020,-2,0
00:01:27.302;A;$YXMTW,16.0,C*15
00:01:27.339;B;$GPRMC,111010,A,5223.6259,N,01255.8551,E,0.0,241.3,030520,4,E*68
00:01:28.001;B;$GPGLL,5223.6259,N,01255.8551,E,111011,A
00:01:28.090;B;$GPGGA,111011,5223.6259,N,01255.8551,E,1,9,1.6,27,M,45,M,,
00:01:28.200;A;$SDDPT,2.5,*7E
00:01:28.259;I;$POSMGYR,-289,6,278*74
00:01:28.259;I;$POSMACC,2068,784,19780*6C
00:01:28.214;B;$GPVTG,,T,261.6,M,0.0,N,0.0,K
00:01:28.240;A;$SDDBT,8.5,f,2.5,M,1.4,F*09
00:01:28.280;B;$GPZDA,111011,03,05,2020,-2,0
00:01:28.305;A;$YXMTW,16.0,C*15
00:01:28.345;B;$GPRMC,111011,A,5223.6259,N,01255.8551,E,0.0,265.6,030520,4,E*6A
00:01:28.995;B;$GPGLL,5223.6260,N,01255.8551,E,111012,A
00:01:29.084;B;$GPGGA,111012,5223.6260,N,01255.8551,E,1,9,1.6,27,M,45,M,,
00:01:29.203;A;$SDDPT,2.5,*7E
00:01:29.261;I;$POSMGYR,-280,-29,297*6C
00:01:29.261;I;$POSMACC,1856,624,19772*6C
00:01:29.210;B;$GPVTG,,T,255.7,M,0.0,N,0.0,K
00:01:29.240;A;$SDDBT,8.4,f,2.5,M,1.4,F*08
00:01:29.275;B;$GPZDA,111012,03,05,2020,-2,0
00:01:29.307;A;$YXMTW,16.0,C*15
00:01:29.338;B;$GPRMC,111012,A,5223.6260,N,01255.8551,E,0.0,259.7,030520,4,E*6D
00:01:30.001;B;$GPGLL,5223.6260,N,01255.8550,E,111013,A
00:01:30.090;B;$GPGGA,111013,5223.6260,N,01255.8550,E,1,9,1.6,27,M,45,M,,
00:01:30.198;A;$SDDPT,2.9,*72
00:01:30.262;I;$POSMGYR,-238,-41,291*67
00:01:30.262;I;$POSMACC,1928,744,19708*6E
00:01:30.214;B;$GPVTG,,T,264.8,M,0.0,N,0.0,K
00:01:30.237;A;$SDDBT,9.9,f,2.9,M,1.6,F*0A
00:01:30.278;B;$GPZDA,111013,03,05,2020,-2,0
00:01:30.304;A;$YXMTW,16.0,C*15
00:01:30.346;B;$GPRMC,111013,A,5223.6260,N,01255.8550,E,0.0,268.8,030520,4,E*60
00:01:30.996;B;$GPGLL,5223.6260,N,01255.8550,E,111014,A
00:01:31.085;B;$GPGGA,111014,5223.6260,N,01255.8550,E,1,9,1.6,27,M,45,M,,
00:01:31.201;A;$SDDPT,2.5,*7E
00:01:31.266;I;$POSMGYR,-276,-47,308*6A
00:01:31.266;I;$POSMACC,2000,760,19908*66
00:01:31.209;B;$GPVTG,,T,256.1,M,0.0,N,0.0,K
00:01:31.239;A;$SDDBT,8.4,f,2.5,M,1.4,F*08
00:01:31.280;B;$GPZDA,111014,03,05,2020,-2,0
00:01:31.308;A;$YXMTW,16.0,C*15
00:01:31.339;B;$GPRMC,111014,A,5223.6260,N,01255.8550,E,0.0,260.1,030520,4,E*66
00:01:32.002;B;$GPGLL,5223.6260,N,01255.8550,E,111015,A
00:01:32.091;B;$GPGGA,111015,5223.6260,N,01255.8550,E,1,9,1.6,27,M,45,M,,
00:01:32.198;A;$SDDPT,2.5,*7E
00:01:32.269;I;$POSMGYR,-276,-13,298*63
00:01:32.269;I;$POSMACC,2040,792,19728*63
00:01:32.215;B;$GPVTG,,T,252.6,M,0.0,N,0.0,K
00:01:32.235;A;$SDDBT,8.4,f,2.5,M,1.4,F*08
00:01:32.283;B;$GPZDA,111015,03,05,2020,-2,0
00:01:32.302;A;$YXMTW,16.0,C*15
00:01:32.344;B;$GPRMC,111015,A,5223.6260,N,01255.8550,E,0.0,256.6,030520,4,E*65
00:01:32.997;B;$GPGLL,5223.6261,N,01255.8549,E,111016,A
00:01:33.085;B;$GPGGA,111016,5223.6261,N,01255.8549,E,1,9,1.6,27,M,45,M,,
00:01:33.200;A;$SDDPT,2.5,*7E
00:01:33.210;B;$GPVTG,,T,264.0,M,0.0,N,0.0,K
00:01:33.272;I;$POSMGYR,-255,-34,287*69
00:01:33.272;I;$POSMACC,1984,748,19832*62
00:01:33.237;A;$SDDBT,8.5,f,2.5,M,1.4,F*09
00:01:33.290;B;$GPZDA,111016,03,05,2020,-2,0
00:01:33.304;A;$YXMTW,16.0,C*15
00:01:33.338;B;$GPRMC,111016,A,5223.6261,N,01255.8549,E,0.0,268.0,030520,4,E*64
00:01:34.001;B;$GPGLL,5223.6261,N,01255.8549,E,111017,A
00:01:34.090;B;$GPGGA,111017,5223.6261,N,01255.8549,E,1,9,1.6,27,M,45,M,,
00:01:34.201;A;$SDDPT,2.5,*7E
00:01:34.272;I;$POSMGYR,-255,-32,281*69
00:01:34.272;I;$POSMACC,2104,660,19860*6D
00:01:34.214;B;$GPVTG,,T,265.5,M,0.0,N,0.0,K
00:01:34.239;A;$SDDBT,8.4,f,2.5,M,1.4,F*08
00:01:34.286;B;$GPZDA,111017,03,05,2020,-2,0
00:01:34.308;A;$YXMTW,16.0,C*15
00:01:34.344;B;$GPRMC,111017,A,5223.6261,N,01255.8549,E,0.0,269.5,030520,4,E*61
00:01:34.996;B;$GPGLL,5223.6261,N,01255.8549,E,111018,A
00:01:35.085;B;$GPGGA,111018,5223.6261,N,01255.8549,E,1,9,1.9,27,M,45,M,,
00:01:35.199;A;$SDDPT,2.5,*7E
00:01:35.209;B;$GPVTG,,T,273.7,M,0.0,N,0.0,K
00:01:35.276;I;$POSMGYR,-270,0,285*76
00:01:35.276;I;$POSMACC,2020,720,19760*60
00:01:35.237;A;$SDDBT,8.4,f,2.5,M,1.4,F*08
00:01:35.275;B;$GPZDA,111018,03,05,2020,-2,0
00:01:35.305;A;$YXMTW,16.0,C*15
00:01:35.339;B;$GPRMC,111018,A,5223.6261,N,01255.8549,E,0.0,277.7,030520,4,E*63
00:01:36.002;B;$GPGLL,5223.6262,N,01255.8549,E,111019,A
00:01:36.091;B;$GPGGA,111019,5223.6262,N,01255.8549,E,1,8,1.9,27,M,45,M,,
00:01:36.200;A;$SDDPT,2.5,*7E
00:01:36.215;B;$GPVTG,,T,285.1,M,0.0,N,0.0,K
00:01:36.276;I;$POSMGYR,-257,-29,270*6F
00:01:36.276;I;$POSMACC,1964,764,19812*60
00:01:36.238;A;$SDDBT,8.4,f,2.5,M,1.4,F*08
00:01:36.286;B;$GPZDA,111019,03,05,2020,-2,0
00:01:36.306;A;$YXMTW,16.0,C*15
00:01:36.343;B;$GPRMC,111019,A,5223.6262,N,01255.8549,E,0.0,289.1,030520,4,E*66
00:01:36.996;B;$GPGLL,5223.6262,N,01255.8548,E,111020,A
00:01:37.085;B;$GPGGA,111020,5223.6262,N,01255.8548,E,1,8,1.6,28,M,45,M,,
00:01:37.198;A;$SDDPT,2.5,*7E
00:01:37.210;B;$GPVTG,,T,297.0,M,0.0,N,0.0,K
00:01:37.277;I;$POSMGYR,-260,-17,326*64
00:01:37.277;I;$POSMACC,2052,832,19636*6B
00:01:37.234;A;$SDDBT,8.4,f,2.5,M,1.4,F*08
00:01:37.273;B;$GPZDA,111020,03,05,2020,-2,0
00:01:37.302;A;$YXMTW,16.0,C*15
00:01:37.340;B;$GPRMC,111020,A,5223.6262,N,01255.8548,E,0.0,301.0,030520,4,E*6D
00:01:38.002;B;$GPGLL,5223.6262,N,01255.8548,E,111021,A
00:01:38.088;B;$GPGGA,111021,5223.6262,N,01255.8548,E,1,8,1.9,28,M,45,M,,
00:01:38.198;A;$SDDPT,2.5,*7E
00:01:38.215;B;$GPVTG,,T,305.9,M,0.0,N,0.0,K
00:01:38.279;I;$POSMGYR,-261,3,299*78
00:01:38.279;I;$POSMACC,1984,740,19632*64
00:01:38.236;A;$SDDBT,8.4,f,2.5,M,1.4,F*08
00:01:38.279;B;$GPZDA,111021,03,05,2020,-2,0
00:01:38.306;A;$YXMTW,16.0,C*15
00:01:38.347;B;$GPRMC,111021,A,5223.6262,N,01255.8548,E,0.0,309.9,030520,4,E*6D
00:01:38.997;B;$GPGLL,5223.6263,N,01255.8548,E,111022,A
00:01:39.084;B;$GPGGA,111022,5223.6263,N,01255.8548,E,1,8,1.6,28,M,45,M,,
00:01:39.203;A;$SDDPT,2.5,*7E
00:01:39.210;B;$GPVTG,,T,305.7,M,0.0,N,0.0,K
00:01:39.280;I;$POSMGYR,-249,-39,275*64
00:01:39.280;I;$POSMACC,1880,736,19776*61
00:01:39.239;A;$SDDBT,8.5,f,2.5,M,1.4,F*09
00:01:39.274;B;$GPZDA,111022,03,05,2020,-2,0
00:01:39.307;A;$YXMTW,16.0,C*15
00:01:39.340;B;$GPRMC,111022,A,5223.6263,N,01255.8548,E,0.0,309.7,030520,4,E*61
00:01:40.000;B;$GPGLL,5223.6263,N,01255.8547,E,111023,A
00:01:40.089;B;$GPGGA,111023,5223.6263,N,01255.8547,E,1,9,1.6,28,M,45,M,,
00:01:40.197;A;$SDDPT,2.5,*7E
00:01:40.213;B;$GPVTG,,T,302.2,M,0.0,N,0.0,K
00:01:40.282;I;$POSMGYR,-259,-48,294*6C
00:01:40.282;I;$POSMACC,2048,760,19688*6D
00:01:40.237;A;$SDDBT,8.5,f,2.5,M,1.4,F*09
00:01:40.303;A;$YXMTW,16.0,C*15
00:01:40.280;B;$GPZDA,111023,03,05,2020,-2,0
00:01:40.346;B;$GPRMC,111023,A,5223.6263,N,01255.8547,E,0.0,306.2,030520,4,E*65
00:01:40.996;B;$GPGLL,5223.6263,N,01255.8547,E,111024,A
00:01:41.084;B;$GPGGA,111024,5223.6263,N,01255.8547,E,1,9,1.6,28,M,45,M,,
00:01:41.200;A;$SDDPT,2.5,*7E
00:01:41.211;B;$GPVTG,,T,290.9,M,0.0,N,0.0,K
00:01:41.283;I;$POSMGYR,-282,-26,282*65
00:01:41.283;I;$POSMACC,1996,732,19800*6D
00:01:41.238;A;$SDDBT,8.5,f,2.5,M,1.4,F*09
00:01:41.274;B;$GPZDA,111024,03,05,2020,-2,0
00:01:41.305;A;$YXMTW,16.0,C*15
00:01:41.340;B;$GPRMC,111024,A,5223.6263,N,01255.8547,E,0.0,294.9,030520,4,E*63
00:01:42.001;B;$GPGLL,5223.6263,N,01255.8547,E,111025,A
00:01:42.087;B;$GPGGA,111025,5223.6263,N,01255.8547,E,1,9,1.6,28,M,45,M,,
00:01:42.202;A;$SDDPT,2.5,*7E
00:01:42.214;B;$GPVTG,,T,289.9,M,0.0,N,0.0,K
00:01:42.285;I;$POSMGYR,-275,-42,285*68
00:01:42.285;I;$POSMACC,1936,756,19784*66
00:01:42.242;A;$SDDBT,8.4,f,2.5,M,1.4,F*08
00:01:42.278;B;$GPZDA,111025,03,05,2020,-2,0
00:01:42.308;A;$YXMTW,16.0,C*15
00:01:42.343;B;$GPRMC,111025,A,5223.6263,N,01255.8547,E,0.0,293.9,030520,4,E*65
00:01:42.995;B;$GPGLL,5223.6263,N,01255.8547,E,111026,A
00:01:43.085;B;$GPGGA,111026,5223.6263,N,01255.8547,E,1,9,1.6,28,M,45,M,,
00:01:43.199;A;$SDDPT,2.5,*7E
00:01:43.208;B;$GPVTG,,T,284.8,M,0.0,N,0.0,K
00:01:43.286;I;$POSMGYR,-269,-50,281*62
00:01:43.286;I;$POSMACC,2104,688,19760*64
00:01:43.236;A;$SDDBT,8.4,f,2.5,M,1.4,F*08
00:01:43.273;B;$GPZDA,111026,03,05,2020,-2,0
00:01:43.304;A;$YXMTW,16.0,C*15
00:01:43.337;B;$GPRMC,111026,A,5223.6263,N,01255.8547,E,0.0,288.8,030520,4,E*6D
00:01:43.999;B;$GPGLL,5223.6263,N,01255.8547,E,111027,A
00:01:44.088;B;$GPGGA,111027,5223.6263,N,01255.8547,E,1,9,1.6,28,M,45,M,,
00:01:44.202;A;$SDDPT,2.5,*7E
00:01:44.212;B;$GPVTG,,T,285.8,M,0.0,N,0.0,K
00:01:44.288;I;$POSMGYR,-283,-19,284*6E
00:01:44.288;I;$POSMACC,2048,760,19932*63
00:01:44.240;A;$SDDBT,8.4,f,2.5,M,1.4,F*08
00:01:44.276;B;$GPZDA,111027,03,05,2020,-2,0
00:01:44.307;A;$YXMTW,16.0,C*15
00:01:44.341;B;$GPRMC,111027,A,5223.6263,N,01255.8547,E,0.0,289.8,030520,4,E*6D
00:01:44.996;B;$GPGLL,5223.6263,N,01255.8547,E,111028,A
00:01:45.085;B;$GPGGA,111028,5223.6263,N,01255.8547,E,1,9,1.6,28,M,45,M,,
00:01:45.197;A;$SDDPT,2.5,*7E
00:01:45.209;B;$GPVTG,,T,282.2,M,0.0,N,0.0,K
00:01:45.288;I;$POSMGYR,-281,-9,298*50
00:01:45.288;I;$POSMACC,2032,652,19708*69
00:01:45.235;A;$SDDBT,8.5,f,2.5,M,1.4,F*09
00:01:45.273;B;$GPZDA,111028,03,05,2020,-2,0
00:01:45.302;A;$YXMTW,16.0,C*15
00:01:45.338;B;$GPRMC,111028,A,5223.6263,N,01255.8547,E,0.0,286.2,030520,4,E*67
00:01:46.000;B;$GPGLL,5223.6264,N,01255.8547,E,111029,A
00:01:46.089;B;$GPGGA,111029,5223.6264,N,01255.8547,E,1,9,1.6,28,M,45,M,,
00:01:46.201;A;$SDDPT,2.5,*7E
00:01:46.215;B;$GPVTG,,T,286.1,M,0.0,N,0.0,K
00:01:46.290;I;$POSMGYR,-232,-38,296*64
00:01:46.290;I;$POSMACC,1992,712,19828*61
00:01:46.238;A;$SDDBT,8.4,f,2.5,M,1.4,F*08
00:01:46.278;B;$GPZDA,111029,03,05,2020,-2,0
00:01:46.305;A;$YXMTW,16.0,C*15
00:01:46.345;B;$GPRMC,111029,A,5223.6264,N,01255.8547,E,0.0,290.1,030520,4,E*65
00:01:46.996;B;$GPGLL,5223.6264,N,01255.8547,E,111030,A
00:01:47.083;B;$GPGGA,111030,5223.6264,N,01255.8547,E,1,9,1.6,28,M,45,M,,
00:01:47.202;A;$SDDPT,2.5,*7E
00:01:47.209;B;$GPVTG,,T,295.6,M,0.0,N,0.0,K
00:01:47.291;I;$POSMGYR,-269,7,310*74
00:01:47.291;I;$POSMACC,2060,768,19776*6F
00:01:47.239;A;$SDDBT,8.5,f,2.5,M,1.4,F*09
00:01:47.274;B;$GPZDA,111030,03,05,2020,-2,0
00:01:47.307;A;$YXMTW,16.0,C*15
00:01:47.338;B;$GPRMC,111030,A,5223.6264,N,01255.8547,E,0.0,299.6,030520,4,E*63
00:01:48.000;B;$GPGLL,5223.6264,N,01255.8547,E,111031,A
00:01:48.089;B;$GPGGA,111031,5223.6264,N,01255.8547,E,1,9,1.6,27,M,45,M,,
00:01:48.198;A;$SDDPT,2.5,*7E
00:01:48.213;B;$GPVTG,,T,298.9,M,0.0,N,0.0,K
00:01:48.293;I;$POSMGYR,-258,-15,300*69
00:01:48.293;I;$POSMACC,2064,640,19640*64
00:01:48.236;A;$SDDBT,8.5,f,2.5,M,1.4,F*09
00:01:48.277;B;$GPZDA,111031,03,05,2020,-2,0
00:01:48.306;A;$YXMTW,16.0,C*15
00:01:48.343;B;$GPRMC,111031,A,5223.6264,N,01255.8547,E,0.0,302.9,030520,4,E*6E
00:01:48.996;B;$GPGLL,5223.6264,N,01255.8546,E,111032,A
00:01:49.086;B;$GPGGA,111032,5223.6264,N,01255.8546,E,1,9,1.6,27,M,45,M,,
00:01:49.200;A;$SDDPT,2.5,*7E
00:01:49.208;B;$GPVTG,,T,292.1,M,0.0,N,0.0,K
00:01:49.294;I;$POSMGYR,-250,-71,316*64
00:01:49.294;I;$POSMACC,2040,792,19656*6B
00:01:49.238;A;$SDDBT,8.5,f,2.5,M,1.4,F*09
00:01:49.275;B;$GPZDA,111032,03,05,2020,-2,0
00:01:49.307;A;$YXMTW,16.0,C*15
00:01:49.339;B;$GPRMC,111032,A,5223.6264,N,01255.8546,E,0.0,296.1,030520,4,E*68
00:01:50.000;B;$GPGLL,5223.6264,N,01255.8546,E,111033,A
00:01:50.097;B;$GPGGA,111033,5223.6264,N,01255.8546,E,1,9,1.6,27,M,45,M,,
00:01:50.195;A;$SDDPT,2.5,*7E
00:01:50.213;B;$GPVTG,,T,281.4,M,0.0,N,0.0,K
00:01:50.296;I;$POSMGYR,-249,-17,282*60
00:01:50.296;I;$POSMACC,1920,620,19888*62
00:01:50.235;A;$SDDBT,8.5,f,2.5,M,1.4,F*09
00:01:50.278;B;$GPZDA,111033,03,05,2020,-2,0
00:01:50.309;A;$YXMTW,16.0,C*15
00:01:50.343;B;$GPRMC,111033,A,5223.6264,N,01255.8546,E,0.0,285.4,030520,4,E*6E
00:01:50.995;B;$GPGLL,5223.6264,N,01255.8547,E,111034,A
00:01:51.085;B;$GPGGA,111034,5223.6264,N,01255.8547,E,1,9,1.6,27,M,45,M,,
00:01:51.200;A;$SDDPT,2.5,*7E
00:01:51.209;B;$GPVTG,,T,286.5,M,0.0,N,0.0,K
00:01:51.297;I;$POSMGYR,-286,-23,304*6B
00:01:51.297;I;$POSMACC,1988,660,19748*67
00:01:51.237;A;$SDDBT,8.5,f,2.5,M,1.4,F*09
00:01:51.273;B;$GPZDA,111034,03,05,2020,-2,0
00:01:51.310;A;$YXMTW,16.0,C*15
00:01:51.338;B;$GPRMC,111034,A,5223.6264,N,01255.8547,E,0.0,290.5,030520,4,E*6D
00:01:52.001;B;$GPGLL,5223.6264,N,01255.8546,E,111035,A
00:01:52.090;B;$GPGGA,111035,5223.6264,N,01255.8546,E,1,9,1.6,27,M,45,M,,
00:01:52.201;A;$SDDPT,2.5,*7E
00:01:52.215;B;$GPVTG,,T,284.4,M,0.0,N,0.0,K
00:01:52.299;I;$POSMGYR,-227,-42,299*62
00:01:52.299;I;$POSMACC,1932,728,19768*69
00:01:52.240;A;$SDDBT,8.4,f,2.5,M,1.4,F*08
00:01:52.279;B;$GPZDA,111035,03,05,2020,-2,0
00:01:52.312;A;$YXMTW,16.0,C*15
00:01:52.344;B;$GPRMC,111035,A,5223.6264,N,01255.8546,E,0.0,288.4,030520,4,E*65
00:01:52.996;B;$GPGLL,5223.6264,N,01255.8546,E,111036,A
00:01:53.084;B;$GPGGA,111036,5223.6264,N,01255.8546,E,1,9,1.6,27,M,45,M,,
00:01:53.199;A;$SDDPT,2.5,*7E
00:01:53.210;B;$GPVTG,,T,273.3,M,0.0,N,0.0,K
00:01:53.235;A;$SDDBT,8.5,f,2.5,M,1.4,F*09
00:01:53.301;I;$POSMGYR,-256,-15,298*67
00:01:53.301;I;$POSMACC,1996,804,19784*64
00:01:53.273;B;$GPZDA,111036,03,05,2020,-2,0
00:01:53.311;A;$YXMTW,16.0,C*15
00:01:53.339;B;$GPRMC,111036,A,5223.6264,N,01255.8546,E,0.0,277.3,030520,4,E*61
00:01:53.999;B;$GPGLL,5223.6264,N,01255.8546,E,111037,A
00:01:54.088;B;$GPGGA,111037,5223.6264,N,01255.8546,E,1,9,1.6,27,M,45,M,,
00:01:54.200;A;$SDDPT,2.5,*7E
00:01:54.213;B;$GPVTG,,T,276.3,M,0.0,N,0.0,K
00:01:54.239;A;$SDDBT,8.4,f,2.5,M,1.4,F*08
00:01:54.302;I;$POSMGYR,-288,-31,274*60
00:01:54.302;I;$POSMACC,1940,672,19696*62
00:01:54.278;B;$GPZDA,111037,03,05,2020,-2,0
00:01:54.313;A;$YXMTW,16.0,C*15
00:01:54.342;B;$GPRMC,111037,A,5223.6264,N,01255.8546,E,0.0,280.3,030520,4,E*68
00:01:54.996;B;$GPGLL,5223.6264,N,01255.8546,E,111038,A
00:01:55.085;B;$GPGGA,111038,5223.6264,N,01255.8546,E,1,9,1.6,27,M,45,M,,
00:01:55.197;A;$SDDPT,2.8,*73
00:01:55.211;B;$GPVTG,,T,292.7,M,0.0,N,0.0,K
00:01:55.233;A;$SDDBT,9.4,f,2.8,M,1.5,F*05
00:01:55.302;I;$POSMGYR,-254,-21,275*61
00:01:55.302;I;$POSMACC,2016,756,19888*6D
00:01:55.272;B;$GPZDA,111038,03,05,2020,-2,0
00:01:55.302;A;$YXMTW,16.0,C*15
00:01:55.337;B;$GPRMC,111038,A,5223.6264,N,01255.8546,E,0.0,296.7,030520,4,E*64
00:01:55.997;B;$GPGLL,5223.6264,N,01255.8546,E,111039,A
00:01:56.086;B;$GPGGA,111039,5223.6264,N,01255.8546,E,1,9,1.6,26,M,45,M,,
00:01:56.198;A;$SDDPT,2.5,*7E
00:01:56.214;B;$GPVTG,,T,292.7,M,0.0,N,0.0,K
00:01:56.237;A;$SDDBT,8.4,f,2.5,M,1.4,F*08
00:01:56.303;I;$POSMGYR,-262,-33,288*65
00:01:56.303;I;$POSMACC,1888,704,19824*60
00:01:56.276;B;$GPZDA,111039,03,05,2020,-2,0
00:01:56.303;A;$YXMTW,16.0,C*15
00:01:56.340;B;$GPRMC,111039,A,5223.6264,N,01255.8546,E,0.0,296.7,030520,4,E*65
00:01:56.995;B;$GPGLL,5223.6264,N,01255.8546,E,111040,A
00:01:57.084;B;$GPGGA,111040,5223.6264,N,01255.8546,E,1,9,1.6,26,M,45,M,,
00:01:57.202;A;$SDDPT,2.5,*7E
00:01:57.210;B;$GPVTG,,T,290.4,M,0.0,N,0.0,K
00:01:57.241;A;$SDDBT,8.4,f,2.5,M,1.4,F*08
00:01:57.305;I;$POSMGYR,-253,-22,295*6B
00:01:57.305;I;$POSMACC,2044,656,19840*6F
00:01:57.273;B;$GPZDA,111040,03,05,2020,-2,0
00:01:57.314;A;$YXMTW,16.0,C*15
00:01:57.338;B;$GPRMC,111040,A,5223.6264,N,01255.8546,E,0.0,294.4,030520,4,E*6A
00:01:58.000;B;$GPGLL,5223.6264,N,01255.8546,E,111041,A
00:01:58.089;B;$GPGGA,111041,5223.6264,N,01255.8546,E,1,9,1.6,26,M,45,M,,
00:01:58.197;A;$SDDPT,2.5,*7E
00:01:58.213;B;$GPVTG,,T,245.7,M,0.0,N,0.0,K
00:01:58.236;A;$SDDBT,8.4,f,2.5,M,1.4,F*08
00:01:58.306;I;$POSMGYR,-243,-2,288*54
00:01:58.306;I;$POSMACC,1908,720,19988*68
00:01:58.279;B;$GPZDA,111041,03,05,2020,-2,0
00:01:58.302;A;$YXMTW,16.0,C*15
00:01:58.344;B;$GPRMC,111041,A,5223.6264,N,01255.8546,E,0.0,249.7,030520,4,E*68
00:01:58.995;B;$GPGLL,5223.6263,N,01255.8547,E,111042,A
00:01:59.084;B;$GPGGA,111042,5223.6263,N,01255.8547,E,1,9,1.6,26,M,45,M,,
00:01:59.200;A;$SDDPT,2.5,*7E
00:01:59.208;B;$GPVTG,,T,206.5,M,0.0,N,0.0,K
00:01:59.238;A;$SDDBT,8.4,f,2.5,M,1.4,F*08
00:01:59.308;I;$POSMGYR,-248,-27,275*6A
00:01:59.308;I;$POSMACC,1996,664,19676*60
00:01:59.276;B;$GPZDA,111042,03,05,2020,-2,0
00:01:59.306;A;$YXMTW,16.0,C*15
00:01:59.339;B;$GPRMC,111042,A,5223.6263,N,01255.8547,E,0.0,210.5,030520,4,E*63
00:02:00.001;B;$GPGLL,5223.6263,N,01255.8547,E,111043,A
00:02:00.090;B;$GPGGA,111043,5223.6263,N,01255.8547,E,1,9,1.6,26,M,45,M,,
00:02:00.195;A;$SDDPT,2.5,*7E
00:02:00.214;B;$GPVTG,,T,190.3,M,0.0,N,0.1,K
00:02:00.232;A;$SDDBT,8.4,f,2.5,M,1.4,F*08
00:02:00.309;I;$POSMGYR,-287,-15,307*6C
00:02:00.309;I;$POSMACC,2080,712,19756*6E
00:02:00.300;A;$YXMTW,16.0,C*15
00:02:00.280;B;$GPZDA,111043,03,05,2020,-2,0
00:02:00.346;B;$GPRMC,111043,A,5223.6263,N,01255.8547,E,0.0,194.3,030520,4,E*6B
00:02:00.994;B;$GPGLL,5223.6262,N,01255.8547,E,111044,A
00:02:01.083;B;$GPGGA,111044,5223.6262,N,01255.8547,E,1,9,1.6,26,M,45,M,,
00:02:01.198;A;$SDDPT,2.5,*7E
00:02:01.207;B;$GPVTG,,T,187.0,M,0.0,N,0.1,K
00:02:01.235;A;$SDDBT,8.4,f,2.5,M,1.4,F*08
00:02:01.312;I;$POSMGYR,-273,-23,306*63
00:02:01.312;I;$POSMACC,1888,764,19728*65
00:02:01.275;B;$GPZDA,111044,03,05,2020,-2,0
00:02:01.303;A;$YXMTW,16.0,C*15
00:02:01.337;B;$GPRMC,111044,A,5223.6262,N,01255.8547,E,0.0,191.0,030520,4,E*6B
00:02:02.000;B;$GPGLL,5223.6262,N,01255.8547,E,111045,A
00:02:02.089;B;$GPGGA,111045,5223.6262,N,01255.8547,E,1,9,1.6,25,M,45,M,,
00:02:02.202;A;$SDDPT,2.5,*7E
00:02:02.213;B;$GPVTG,,T,186.0,M,0.0,N,0.1,K
00:02:02.238;A;$SDDBT,8.4,f,2.5,M,1.4,F*08
00:02:02.315;I;$POSMGYR,-229,-48,320*65
00:02:02.315;I;$POSMACC,1964,780,19708*6E
00:02:02.278;B;$GPZDA,111045,03,05,2020,-2,0
00:02:02.306;A;$YXMTW,16.0,C*15
00:02:02.343;B;$GPRMC,111045,A,5223.6262,N,01255.8547,E,0.0,190.0,030520,4,E*6B
00:02:02.995;B;$GPGLL,5223.6262,N,01255.8547,E,111046,A
00:02:03.084;B;$GPGGA,111046,5223.6262,N,01255.8547,E,1,9,1.6,25,M,45,M,,
00:02:03.196;A;$SDDPT,2.5,*7E
00:02:03.208;B;$GPVTG,,T,185.1,M,0.0,N,0.1,K
00:02:03.236;A;$SDDBT,8.4,f,2.5,M,1.4,F*08
00:02:03.317;I;$POSMGYR,-239,-17,311*6C
00:02:03.317;I;$POSMACC,1992,676,19776*66
00:02:03.272;B;$GPZDA,111046,03,05,2020,-2,0
00:02:03.303;A;$YXMTW,16.0,C*15
00:02:03.338;B;$GPRMC,111046,A,5223.6262,N,01255.8547,E,0.0,189.1,030520,4,E*61
00:02:03.999;B;$GPGLL,5223.6262,N,01255.8547,E,111047,A
00:02:04.088;B;$GPGGA,111047,5223.6262,N,01255.8547,E,1,9,1.6,25,M,45,M,,
00:02:04.199;A;$SDDPT,2.5,*7E
00:02:04.214;B;$GPVTG,,T,188.1,M,0.0,N,0.1,K
00:02:04.237;A;$SDDBT,8.6,f,2.5,M,1.4,F*0A
00:02:04.317;I;$POSMGYR,-280,-13,313*68
00:02:04.317;I;$POSMACC,2020,696,19868*6B
00:02:04.277;B;$GPZDA,111047,03,05,2020,-2,0
00:02:04.307;A;$YXMTW,16.0,C*15
00:02:04.342;B;$GPRMC,111047,A,5223.6262,N,01255.8547,E,0.0,192.1,030520,4,E*6A
00:02:04.995;B;$GPGLL,5223.6262,N,01255.8547,E,111048,A
00:02:05.084;B;$GPGGA,111048,5223.6262,N,01255.8547,E,1,9,1.6,25,M,45,M,,
00:02:05.196;A;$SDDPT,2.5,*7E
00:02:05.208;B;$GPVTG,,T,186.4,M,0.0,N,0.1,K
00:02:05.234;A;$SDDBT,8.5,f,2.5,M,1.4,F*09
00:02:05.318;I;$POSMGYR,-260,-20,315*60
00:02:05.318;I;$POSMACC,1924,716,19696*63
00:02:05.273;B;$GPZDA,111048,03,05,2020,-2,0
00:02:05.300;A;$YXMTW,16.0,C*15
00:02:05.339;B;$GPRMC,111048,A,5223.6262,N,01255.8547,E,0.0,190.4,030520,4,E*62
00:02:06.001;B;$GPGLL,5223.6262,N,01255.8547,E,111049,A
00:02:06.088;B;$GPGGA,111049,5223.6262,N,01255.8547,E,1,9,1.6,25,M,45,M,,
00:02:06.197;A;$SDDPT,2.5,*7E
00:02:06.214;B;$GPVTG,,T,185.9,M,0.0,N,0.1,K
00:02:06.235;A;$SDDBT,8.5,f,2.5,M,1.4,F*09
00:02:06.319;I;$POSMGYR,-266,-13,292*68
00:02:06.319;I;$POSMACC,2076,744,19816*6F
00:02:06.278;B;$GPZDA,111049,03,05,2020,-2,0
00:02:06.304;A;$YXMTW,16.0,C*15
00:02:06.344;B;$GPRMC,111049,A,5223.6262,N,01255.8547,E,0.0,189.9,030520,4,E*66
00:02:06.994;B;$GPGLL,5223.6261,N,01255.8548,E,111050,A
00:02:07.083;B;$GPGGA,111050,5223.6261,N,01255.8548,E,1,9,1.6,25,M,45,M,,
00:02:07.200;A;$SDDPT,2.5,*7E
00:02:07.210;B;$GPVTG,,T,181.7,M,0.0,N,0.1,K
00:02:07.237;A;$SDDBT,8.5,f,2.5,M,1.4,F*09
00:02:07.321;I;$POSMGYR,-254,-15,288*64
00:02:07.321;I;$POSMACC,1984,688,19868*60
00:02:07.273;B;$GPZDA,111050,03,05,2020,-2,0
00:02:07.305;A;$YXMTW,16.0,C*15
00:02:07.337;B;$GPRMC,111050,A,5223.6261,N,01255.8548,E,0.0,185.7,030520,4,E*60
00:02:08.001;B;$GPGLL,5223.6261,N,01255.8548,E,111051,A
00:02:08.089;B;$GPGGA,111051,5223.6261,N,01255.8548,E,1,9,1.6,24,M,45,M,,
00:02:08.196;A;$SDDPT,2.5,*7E
00:02:08.212;B;$GPVTG,,T,187.1,M,0.0,N,0.1,K
00:02:08.234;A;$SDDBT,8.4,f,2.5,M,1.4,F*08
00:02:08.322;I;$POSMGYR,-251,-33,273*61
00:02:08.322;I;$POSMACC,1888,664,19804*65
00:02:08.301;A;$YXMTW,16.0,C*15
00:02:08.277;B;$GPZDA,111051,03,05,2020,-2,0
00:02:08.345;B;$GPRMC,111051,A,5223.6261,N,01255.8548,E,0.0,191.1,030520,4,E*62
00:02:08.995;B;$GPGLL,5223.6261,N,01255.8548,E,111052,A
00:02:09.084;B;$GPGGA,111052,5223.6261,N,01255.8548,E,1,9,1.6,24,M,45,M,,
00:02:09.198;A;$SDDPT,2.5,*7E
00:02:09.208;B;$GPVTG,,T,198.5,M,0.0,N,0.0,K
00:02:09.238;A;$SDDBT,8.4,f,2.5,M,1.4,F*08
00:02:09.324;I;$POSMGYR,-277,-17,291*6F
00:02:09.324;I;$POSMACC,2052,720,19732*62
00:02:09.274;B;$GPZDA,111052,03,05,2020,-2,0
00:02:09.304;A;$YXMTW,16.0,C*15
00:02:09.338;B;$GPRMC,111052,A,5223.6261,N,01255.8548,E,0.0,202.5,030520,4,E*6C
00:02:10.000;B;$GPGLL,5223.6261,N,01255.8548,E,111053,A
00:02:10.089;B;$GPGGA,111053,5223.6261,N,01255.8548,E,1,9,1.6,24,M,45,M,,
00:02:10.195;A;$SDDPT,2.5,*7E
00:02:10.213;B;$GPVTG,,T,212.0,M,0.0,N,0.0,K
00:02:10.232;A;$SDDBT,8.5,f,2.5,M,1.4,F*09
00:02:10.325;I;$POSMGYR,-288,-21,285*6F
00:02:10.325;I;$POSMACC,1872,660,19876*61
00:02:10.300;A;$YXMTW,16.0,C*15
00:02:10.278;B;$GPZDA,111053,03,05,2020,-2,0
00:02:10.342;B;$GPRMC,111053,A,5223.6261,N,01255.8548,E,0.0,216.0,030520,4,E*6D
00:02:10.996;B;$GPGLL,5223.6260,N,01255.8548,E,111054,A
00:02:11.084;B;$GPGGA,111054,5223.6260,N,01255.8548,E,1,9,1.6,24,M,45,M,,
00:02:11.196;A;$SDDPT,2.5,*7E
00:02:11.209;B;$GPVTG,,T,210.2,M,0.0,N,0.0,K
00:02:11.236;A;$SDDBT,8.5,f,2.5,M,1.4,F*09
00:02:11.326;I;$POSMGYR,-212,-15,285*6B
00:02:11.326;I;$POSMACC,1972,712,19696*64
00:02:11.272;B;$GPZDA,111054,03,05,2020,-2,0
00:02:11.302;A;$YXMTW,16.0,C*15
00:02:11.342;B;$GPRMC,111054,A,5223.6260,N,01255.8548,E,0.0,214.2,030520,4,E*6B
00:02:12.001;B;$GPGLL,5223.6260,N,01255.8548,E,111055,A
00:02:12.087;B;$GPGGA,111055,5223.6260,N,01255.8548,E,1,9,1.6,24,M,45,M,,
00:02:12.200;A;$SDDPT,2.5,*7E
00:02:12.214;B;$GPVTG,,T,224.0,M,0.0,N,0.0,K
00:02:12.237;A;$SDDBT,8.5,f,2.5,M,1.4,F*09
00:02:12.328;I;$POSMGYR,-277,-29,282*60
00:02:12.328;I;$POSMACC,1952,828,19640*6B
00:02:12.278;B;$GPZDA,111055,03,05,2020,-2,0
00:02:12.305;A;$YXMTW,16.0,C*15
00:02:12.345;B;$GPRMC,111055,A,5223.6260,N,01255.8548,E,0.0,228.0,030520,4,E*67
00:02:12.996;B;$GPGLL,5223.6260,N,01255.8548,E,111056,A
00:02:13.083;B;$GPGGA,111056,5223.6260,N,01255.8548,E,1,9,1.6,23,M,45,M,,
00:02:13.196;A;$SDDPT,2.5,*7E
00:02:13.209;B;$GPVTG,,T,254.8,M,0.0,N,0.0,K
00:02:13.234;A;$SDDBT,8.5,f,2.5,M,1.4,F*09
00:02:13.329;I;$POSMGYR,-247,-40,280*6E
00:02:13.329;I;$POSMACC,1836,684,19728*6F
00:02:13.273;B;$GPZDA,111056,03,05,2020,-2,0
00:02:13.301;A;$YXMTW,16.0,C*15
00:02:13.345;B;$GPRMC,111056,A,5223.6260,N,01255.8548,E,0.0,258.8,030520,4,E*6B
00:02:13.999;B;$GPGLL,5223.6260,N,01255.8548,E,111057,A
00:02:14.088;B;$GPGGA,111057,5223.6260,N,01255.8548,E,1,9,1.6,23,M,45,M,,
00:02:14.198;A;$SDDPT,2.8,*73
00:02:14.212;B;$GPVTG,,T,291.7,M,0.0,N,0.0,K
00:02:14.236;A;$SDDBT,9.5,f,2.8,M,1.5,F*04
00:02:14.331;I;$POSMGYR,-237,-35,274*60
00:02:14.331;I;$POSMACC,2092,756,19860*67
00:02:14.277;B;$GPZDA,111057,03,05,2020,-2,0
00:02:14.304;A;$YXMTW,16.0,C*15
00:02:14.346;B;$GPRMC,111057,A,5223.6260,N,01255.8548,E,0.0,295.7,030520,4,E*64
00:02:14.994;B;$GPGLL,5223.6260,N,01255.8548,E,111058,A
00:02:15.084;B;$GPGGA,111058,5223.6260,N,01255.8548,E,1,9,1.6,23,M,45,M,,
00:02:15.195;A;$SDDPT,2.5,*7E
00:02:15.207;B;$GPVTG,,T,305.1,M,0.0,N,0.0,K
00:02:15.233;A;$SDDBT,8.5,f,2.5,M,1.4,F*09
00:02:15.332;I;$POSMGYR,-259,-4,313*5A
00:02:15.332;I;$POSMACC,2000,716,19760*67
00:02:15.299;A;$YXMTW,16.0,C*15
00:02:15.273;B;$GPZDA,111058,03,05,2020,-2,0
00:02:15.348;B;$GPRMC,111058,A,5223.6260,N,01255.8548,E,0.0,309.1,030520,4,E*69
00:02:16.000;B;$GPGLL,5223.6260,N,01255.8549,E,111059,A
00:02:16.089;B;$GPGGA,111059,5223.6260,N,01255.8549,E,1,9,1.6,23,M,45,M,,
00:02:16.197;A;$SDDPT,2.5,*7E
00:02:16.213;B;$GPVTG,,T,303.1,M,0.0,N,0.1,K
00:02:16.233;A;$SDDBT,8.5,f,2.5,M,1.4,F*09
00:02:16.333;I;$POSMGYR,-267,-33,293*6A
00:02:16.333;I;$POSMACC,2036,752,19812*68
00:02:16.302;A;$YXMTW,16.0,C*15
00:02:16.276;B;$GPZDA,111059,03,05,2020,-2,0
00:02:16.347;B;$GPRMC,111059,A,5223.6260,N,01255.8549,E,0.0,307.1,030520,4,E*67
00:02:16.994;B;$GPGLL,5223.6260,N,01255.8549,E,111100,A
00:02:17.083;B;$GPGGA,111100,5223.6260,N,01255.8549,E,1,9,1.6,23,M,45,M,,
00:02:17.200;A;$SDDPT,2.5,*7E
00:02:17.207;B;$GPVTG,,T,308.7,M,0.0,N,0.1,K
00:02:17.237;A;$SDDBT,8.5,f,2.5,M,1.4,F*09
00:02:17.272;B;$GPZDA,111100,03,05,2020,-2,0
00:02:17.335;I;$POSMGYR,-281,-29,296*6C
00:02:17.335;I;$POSMACC,1956,692,19752*62
00:02:17.304;A;$YXMTW,16.0,C*15
00:02:17.347;B;$GPRMC,111100,A,5223.6260,N,01255.8549,E,0.0,312.7,030520,4,E*68
00:02:18.000;B;$GPGLL,5223.6259,N,01255.8549,E,111101,A
00:02:18.089;B;$GPGGA,111101,5223.6259,N,01255.8549,E,1,9,1.6,23,M,45,M,,
00:02:18.194;A;$SDDPT,3.1,*7B
00:02:18.213;B;$GPVTG,,T,309.3,M,0.0,N,0.1,K
00:02:18.232;A;$SDDBT,10.5,f,3.1,M,1.7,F*36
00:02:18.336;I;$POSMGYR,-266,-39,274*68
00:02:18.336;I;$POSMACC,2056,720,19824*6E
00:02:18.303;A;$YXMTW,16.0,C*15
00:02:18.277;B;$GPZDA,111101,03,05,2020,-2,0
00:02:18.350;B;$GPRMC,111101,A,5223.6259,N,01255.8549,E,0.0,313.3,030520,4,E*66
00:02:18.995;B;$GPGLL,5223.6259,N,01255.8550,E,111102,A
00:02:19.084;B;$GPGGA,111102,5223.6259,N,01255.8550,E,1,9,1.6,22,M,45,M,,
00:02:19.198;A;$SDDPT,3.1,*7B
00:02:19.208;B;$GPVTG,,T,312.2,M,0.0,N,0.1,K
00:02:19.236;A;$SDDBT,10.5,f,3.1,M,1.7,F*36
00:02:19.272;B;$GPZDA,111102,03,05,2020,-2,0
00:02:19.338;I;$POSMGYR,-280,-14,278*63
00:02:19.338;I;$POSMACC,2048,720,19764*6A
00:02:19.304;A;$YXMTW,16.0,C*15
00:02:19.336;B;$GPRMC,111102,A,5223.6259,N,01255.8550,E,0.0,316.2,030520,4,E*69
00:02:19.999;B;$GPGLL,5223.6259,N,01255.8550,E,111103,A
00:02:20.088;B;$GPGGA,111103,5223.6259,N,01255.8550,E,1,9,1.6,22,M,45,M,,
00:02:20.193;A;$SDDPT,2.5,*7E
00:02:20.214;B;$GPVTG,,T,317.5,M,0.0,N,0.1,K
00:02:20.230;A;$SDDBT,8.4,f,2.5,M,1.4,F*08
00:02:20.299;A;$YXMTW,16.0,C*15
00:02:20.278;B;$GPZDA,111103,03,05,2020,-2,0
00:02:20.341;I;$POSMGYR,-267,-60,286*68
00:02:20.341;I;$POSMACC,2032,704,19640*66
00:02:20.350;B;$GPRMC,111103,A,5223.6259,N,01255.8550,E,0.0,321.5,030520,4,E*6B
00:02:20.996;B;$GPGLL,5223.6258,N,01255.8551,E,111104,A
00:02:21.082;B;$GPGGA,111104,5223.6258,N,01255.8551,E,1,9,1.6,22,M,45,M,,
00:02:21.197;A;$SDDPT,2.5,*7E
00:02:21.209;B;$GPVTG,,T,328.3,M,0.0,N,0.0,K
00:02:21.234;A;$SDDBT,8.5,f,2.5,M,1.4,F*09
00:02:21.273;B;$GPZDA,111104,03,05,2020,-2,0
00:02:21.300;A;$YXMTW,16.0,C*15
00:02:21.342;I;$POSMGYR,-240,-31,266*67
00:02:21.342;I;$POSMACC,2056,772,19812*6C
00:02:21.337;B;$GPRMC,111104,A,5223.6258,N,01255.8551,E,0.0,332.3,030520,4,E*68
00:02:22.000;B;$GPGLL,5223.6258,N,01255.8551,E,111105,A
00:02:22.088;B;$GPGGA,111105,5223.6258,N,01255.8551,E,1,9,1.6,22,M,45,M,,
00:02:22.198;A;$SDDPT,2.5,*7E
00:02:22.213;B;$GPVTG,,T,332.3,M,0.0,N,0.1,K
00:02:22.237;A;$SDDBT,8.5,f,2.5,M,1.4,F*09
00:02:22.278;B;$GPZDA,111105,03,05,2020,-2,0
00:02:22.304;A;$YXMTW,16.0,C*15
00:02:22.344;I;$POSMGYR,-270,10,312*48
00:02:22.344;I;$POSMACC,2036,752,19740*60
00:02:22.344;B;$GPRMC,111105,A,5223.6258,N,01255.8551,E,0.0,336.3,030520,4,E*6D
00:02:22.995;B;$GPGLL,5223.6258,N,01255.8551,E,111106,A
00:02:23.092;B;$GPGGA,111106,5223.6258,N,01255.8551,E,1,9,1.6,22,M,45,M,,
00:02:23.196;A;$SDDPT,3.1,*7B
00:02:23.208;B;$GPVTG,,T,328.3,M,0.0,N,0.1,K
00:02:23.233;A;$SDDBT,10.4,f,3.1,M,1.7,F*37
00:02:23.271;B;$GPZDA,111106,03,05,2020,-2,0
00:02:23.301;A;$YXMTW,16.0,C*15
00:02:23.345;I;$POSMGYR,-252,-29,306*6A
00:02:23.345;I;$POSMACC,1856,720,19788*6C
00:02:23.338;B;$GPRMC,111106,A,5223.6258,N,01255.8551,E,0.0,332.3,030520,4,E*6A
00:02:24.000;B;$GPGLL,5223.6258,N,01255.8552,E,111107,A
00:02:24.090;B;$GPGGA,111107,5223.6258,N,01255.8552,E,1,9,1.6,22,M,45,M,,
00:02:24.197;A;$SDDPT,3.1,*7B
00:02:24.214;B;$GPVTG,,T,332.8,M,0.0,N,0.1,K
00:02:24.234;A;$SDDBT,10.4,f,3.1,M,1.7,F*37
00:02:24.277;B;$GPZDA,111107,03,05,2020,-2,0
00:02:24.305;A;$YXMTW,16.0,C*15
00:02:24.347;I;$POSMGYR,-248,-50,279*66
00:02:24.347;I;$POSMACC,2044,752,19828*64
00:02:24.342;B;$GPRMC,111107,A,5223.6258,N,01255.8552,E,0.0,336.8,030520,4,E*67
00:02:24.994;B;$GPGLL,5223.6258,N,01255.8552,E,111108,A
00:02:25.084;B;$GPGGA,111108,5223.6258,N,01255.8552,E,1,9,1.6,22,M,45,M,,
00:02:25.193;A;$SDDPT,2.5,*7E
00:02:25.208;B;$GPVTG,,T,339.8,M,0.0,N,0.1,K
00:02:25.231;A;$SDDBT,8.6,f,2.5,M,1.4,F*0A
00:02:25.272;B;$GPZDA,111108,03,05,2020,-2,0
00:02:25.298;A;$YXMTW,16.0,C*15
00:02:25.348;I;$POSMGYR,-280,-22,282*63
00:02:25.348;I;$POSMACC,2032,680,19812*62
00:02:25.338;B;$GPRMC,111108,A,5223.6258,N,01255.8552,E,0.0,343.8,030520,4,E*6A
00:02:25.999;B;$GPGLL,5223.6258,N,01255.8553,E,111109,A
00:02:26.089;B;$GPGGA,111109,5223.6258,N,01255.8553,E,1,9,1.6,22,M,45,M,,
00:02:26.195;A;$SDDPT,2.5,*7E
00:02:26.211;B;$GPVTG,,T,337.6,M,0.1,N,0.1,K
00:02:26.233;A;$SDDBT,8.5,f,2.5,M,1.4,F*09
00:02:26.278;B;$GPZDA,111109,03,05,2020,-2,0
00:02:26.301;A;$YXMTW,16.0,C*15
00:02:26.350;I;$POSMGYR,-272,-27,290*68
00:02:26.350;I;$POSMACC,1916,664,19788*68
00:02:26.343;B;$GPRMC,111109,A,5223.6258,N,01255.8553,E,0.1,341.6,030520,4,E*67
00:02:26.995;B;$GPGLL,5223.6257,N,01255.8553,E,111110,A
00:02:27.084;B;$GPGGA,111110,5223.6257,N,01255.8553,E,1,9,1.6,21,M,45,M,,
00:02:27.197;A;$SDDPT,2.5,*7E
00:02:27.209;B;$GPVTG,,T,335.0,M,0.0,N,0.1,K
00:02:27.236;A;$SDDBT,8.4,f,2.5,M,1.4,F*08
00:02:27.272;B;$GPZDA,111110,03,05,2020,-2,0
00:02:27.303;A;$YXMTW,16.0,C*15
00:02:27.351;I;$POSMGYR,-236,-46,304*63
00:02:27.351;I;$POSMACC,2028,640,19724*6F
00:02:27.337;B;$GPRMC,111110,A,5223.6257,N,01255.8553,E,0.0,339.0,030520,4,E*68
00:02:28.000;B;$GPGLL,5223.6257,N,01255.8554,E,111111,A
00:02:28.089;B;$GPGGA,111111,5223.6257,N,01255.8554,E,1,9,1.6,21,M,45,M,,
00:02:28.195;A;$SDDPT,2.5,*7E
00:02:28.214;B;$GPVTG,,T,336.7,M,0.0,N,0.1,K
00:02:28.231;A;$SDDBT,8.4,f,2.5,M,1.4,F*08
00:02:28.299;A;$YXMTW,16.0,C*15
00:02:28.277;B;$GPZDA,111111,03,05,2020,-2,0
00:02:28.353;I;$POSMGYR,-272,-23,281*6C
00:02:28.353;I;$POSMACC,1932,596,19768*6E
00:02:28.343;B;$GPRMC,111111,A,5223.6257,N,01255.8554,E,0.0,340.7,030520,4,E*67
00:02:28.995;B;$GPGLL,5223.6257,N,01255.8554,E,111112,A
00:02:29.084;B;$GPGGA,111112,5223.6257,N,01255.8554,E,1,9,1.6,21,M,45,M,,
00:02:29.195;A;$SDDPT,2.5,*7E
00:02:29.210;B;$GPVTG,,T,337.4,M,0.0,N,0.1,K
00:02:29.234;A;$SDDBT,8.5,f,2.5,M,1.4,F*09
00:02:29.273;B;$GPZDA,111112,03,05,2020,-2,0
00:02:29.301;A;$YXMTW,16.0,C*15
00:02:29.354;I;$POSMGYR,-256,-39,265*6B
00:02:29.354;I;$POSMACC,1956,676,19784*63
00:02:29.338;B;$GPRMC,111112,A,5223.6257,N,01255.8554,E,0.0,341.4,030520,4,E*66
00:02:29.998;B;$GPGLL,5223.6257,N,01255.8554,E,111113,A
00:02:30.087;B;$GPGGA,111113,5223.6257,N,01255.8554,E,1,9,1.6,21,M,45,M,,
00:02:30.193;A;$SDDPT,2.5,*7E
00:02:30.215;B;$GPVTG,,T,334.7,M,0.0,N,0.1,K
00:02:30.232;A;$SDDBT,8.4,f,2.5,M,1.4,F*08
00:02:30.298;A;$YXMTW,16.0,C*15
00:02:30.277;B;$GPZDA,111113,03,05,2020,-2,0
00:02:30.358;I;$POSMGYR,-258,-32,288*6D
00:02:30.358;I;$POSMACC,1940,680,19592*68
00:02:30.342;B;$GPRMC,111113,A,5223.6257,N,01255.8554,E,0.0,338.7,030520,4,E*6A
00:02:30.995;B;$GPGLL,5223.6257,N,01255.8555,E,111114,A
00:02:31.083;B;$GPGGA,111114,5223.6257,N,01255.8555,E,1,9,1.6,21,M,45,M,,
00:02:31.194;A;$SDDPT,2.5,*7E
00:02:31.209;B;$GPVTG,,T,336.0,M,0.0,N,0.1,K
00:02:31.233;A;$SDDBT,8.5,f,2.5,M,1.4,F*09
00:02:31.272;B;$GPZDA,111114,03,05,2020,-2,0
00:02:31.300;A;$YXMTW,16.0,C*15
00:02:31.359;I;$POSMGYR,-243,-38,298*6C
00:02:31.359;I;$POSMACC,2040,704,19672*62
00:02:31.337;B;$GPRMC,111114,A,5223.6257,N,01255.8555,E,0.0,340.0,030520,4,E*64
00:02:31.999;B;$GPGLL,5223.6256,N,01255.8555,E,111115,A
00:02:32.088;B;$GPGGA,111115,5223.6256,N,01255.8555,E,1,9,1.6,21,M,45,M,,
00:02:32.198;A;$SDDPT,2.5,*7E
00:02:32.212;B;$GPVTG,,T,332.9,M,0.0,N,0.1,K
00:02:32.237;A;$SDDBT,8.5,f,2.5,M,1.4,F*09
00:02:32.278;B;$GPZDA,111115,03,05,2020,-2,0
00:02:32.303;A;$YXMTW,16.0,C*15
00:02:32.363;I;$POSMGYR,-257,-43,295*68
00:02:32.363;I;$POSMACC,2108,656,19756*6E
00:02:32.342;B;$GPRMC,111115,A,5223.6256,N,01255.8555,E,0.0,336.9,030520,4,E*6C
00:02:32.993;B;$GPGLL,5223.6256,N,01255.8555,E,111116,A
00:02:33.082;B;$GPGGA,111116,5223.6256,N,01255.8555,E,1,9,1.6,21,M,45,M,,
00:02:33.194;A;$SDDPT,2.5,*7E
00:02:33.206;B;$GPVTG,,T,326.9,M,0.0,N,0.1,K
00:02:33.233;A;$SDDBT,8.5,f,2.5,M,1.4,F*09
00:02:33.272;B;$GPZDA,111116,03,05,2020,-2,0
00:02:33.299;A;$YXMTW,16.0,C*15
00:02:33.364;I;$POSMGYR,-256,-7,281*5C
00:02:33.364;I;$POSMACC,2040,716,19876*6B
00:02:33.336;B;$GPRMC,111116,A,5223.6256,N,01255.8555,E,0.0,330.9,030520,4,E*69
00:02:34.000;B;$GPGLL,5223.6256,N,01255.8556,E,111117,A
00:02:34.088;B;$GPGGA,111117,5223.6256,N,01255.8556,E,1,9,1.6,21,M,45,M,,
00:02:34.195;A;$SDDPT,2.5,*7E
00:02:34.213;B;$GPVTG,,T,321.1,M,0.0,N,0.1,K
00:02:34.233;A;$SDDBT,8.4,f,2.5,M,1.4,F*08
00:02:34.277;B;$GPZDA,111117,03,05,2020,-2,0
00:02:34.301;A;$YXMTW,16.0,C*15
00:02:34.364;I;$POSMGYR,-264,-49,277*6E
00:02:34.364;I;$POSMACC,1924,824,19744*63
00:02:34.343;B;$GPRMC,111117,A,5223.6256,N,01255.8556,E,0.0,325.1,030520,4,E*67
00:02:34.994;B;$GPGLL,5223.6255,N,01255.8556,E,111118,A
00:02:35.083;B;$GPGGA,111118,5223.6255,N,01255.8556,E,1,9,1.6,21,M,45,M,,
00:02:35.193;A;$SDDPT,2.5,*7E
00:02:35.207;B;$GPVTG,,T,315.6,M,0.0,N,0.1,K
00:02:35.231;A;$SDDBT,8.4,f,2.5,M,1.4,F*08
00:02:35.273;B;$GPZDA,111118,03,05,2020,-2,0
00:02:35.298;A;$YXMTW,16.0,C*15
00:02:35.366;I;$POSMGYR,-231,-3,298*51
00:02:35.366;I;$POSMACC,2056,608,19812*60
00:02:35.337;B;$GPRMC,111118,A,5223.6255,N,01255.8556,E,0.0,319.6,030520,4,E*63
00:02:36.000;B;$GPGLL,5223.6255,N,01255.8556,E,111119,A
00:02:36.089;B;$GPGGA,111119,5223.6255,N,01255.8556,E,1,9,1.6,21,M,45,M,,
00:02:36.194;A;$SDDPT,2.5,*7E
00:02:36.213;B;$GPVTG,,T,308.7,M,0.0,N,0.1,K
00:02:36.231;A;$SDDBT,8.4,f,2.5,M,1.4,F*08
00:02:36.299;A;$YXMTW,16.0,C*15
00:02:36.278;B;$GPZDA,111119,03,05,2020,-2,0
00:02:36.367;I;$POSMGYR,-262,-32,279*6A
00:02:36.367;I;$POSMACC,1980,732,19812*69
00:02:36.343;B;$GPRMC,111119,A,5223.6255,N,01255.8556,E,0.0,312.7,030520,4,E*68
00:02:36.995;B;$GPGLL,5223.6255,N,01255.8556,E,111120,A
00:02:37.083;B;$GPGGA,111120,5223.6255,N,01255.8556,E,1,9,1.6,21,M,45,M,,
00:02:37.198;A;$SDDPT,2.5,*7E
00:02:37.208;B;$GPVTG,,T,307.8,M,0.0,N,0.1,K
00:02:37.235;A;$SDDBT,8.4,f,2.5,M,1.4,F*08
00:02:37.272;B;$GPZDA,111120,03,05,2020,-2,0
00:02:37.302;A;$YXMTW,16.0,C*15
00:02:37.369;I;$POSMGYR,-248,-32,306*6B
00:02:37.369;I;$POSMACC,2136,784,19748*62
00:02:37.337;B;$GPRMC,111120,A,5223.6255,N,01255.8556,E,0.0,311.8,030520,4,E*6E
00:02:37.998;B;$GPGLL,5223.6255,N,01255.8557,E,111121,A
00:02:38.087;B;$GPGGA,111121,5223.6255,N,01255.8557,E,1,9,1.6,21,M,45,M,,
00:02:38.192;A;$SDDPT,2.5,*7E
00:02:38.214;B;$GPVTG,,T,308.1,M,0.0,N,0.1,K
00:02:38.232;A;$SDDBT,8.5,f,2.5,M,1.4,F*09
00:02:38.300;A;$YXMTW,16.0,C*15
00:02:38.277;B;$GPZDA,111121,03,05,2020,-2,0
00:02:38.370;I;$POSMGYR,-278,-18,281*6E
00:02:38.370;I;$POSMACC,2036,720,19824*68
00:02:38.342;B;$GPRMC,111121,A,5223.6255,N,01255.8557,E,0.0,312.1,030520,4,E*64
00:02:38.995;B;$GPGLL,5223.6254,N,01255.8557,E,111122,A
00:02:39.082;B;$GPGGA,111122,5223.6254,N,01255.8557,E,1,9,1.6,21,M,45,M,,
00:02:39.196;A;$SDDPT,2.5,*7E
00:02:39.208;B;$GPVTG,,T,303.6,M,0.0,N,0.1,K
00:02:39.234;A;$SDDBT,8.5,f,2.5,M,1.4,F*09
00:02:39.272;B;$GPZDA,111122,03,05,2020,-2,0
00:02:39.308;A;$YXMTW,16.1,C*14
00:02:39.372;I;$POSMGYR,-278,-32,286*61
00:02:39.372;I;$POSMACC,1936,716,19692*64
00:02:39.336;B;$GPRMC,111122,A,5223.6254,N,01255.8557,E,0.0,307.6,030520,4,E*65
00:02:40.000;B;$GPGLL,5223.6254,N,01255.8557,E,111123,A
00:02:40.089;B;$GPGGA,111123,5223.6254,N,01255.8557,E,1,8,1.9,21,M,45,M,,
00:02:40.191;A;$SDDPT,2.5,*7E
00:02:40.212;B;$GPVTG,,T,291.0,M,0.0,N,0.1,K
00:02:40.229;A;$SDDBT,8.5,f,2.5,M,1.4,F*09
00:02:40.297;A;$YXMTW,16.1,C*14
00:02:40.276;B;$GPZDA,111123,03,05,2020,-2,0
00:02:40.373;I;$POSMGYR,-234,-17,294*6D
00:02:40.373;I;$POSMACC,2044,700,19780*6E
00:02:40.343;B;$GPRMC,111123,A,5223.6254,N,01255.8557,E,0.0,295.0,030520,4,E*68
00:02:40.994;B;$GPGLL,5223.6253,N,01255.8558,E,111124,A
00:02:41.083;B;$GPGGA,111124,5223.6253,N,01255.8558,E,1,8,1.9,21,M,45,M,,
00:02:41.195;A;$SDDPT,2.5,*7E
00:02:41.207;B;$GPVTG,,T,282.8,M,0.0,N,0.1,K
00:02:41.232;A;$SDDBT,8.5,f,2.5,M,1.4,F*09
00:02:41.271;B;$GPZDA,111124,03,05,2020,-2,0
00:02:41.299;A;$YXMTW,16.1,C*14
00:02:41.375;I;$POSMGYR,-275,-20,295*6D
00:02:41.375;I;$POSMACC,1916,724,19900*63
00:02:41.340;B;$GPRMC,111124,A,5223.6253,N,01255.8558,E,0.0,286.8,030520,4,E*6D
00:02:41.999;B;$GPGLL,5223.6253,N,01255.8558,E,111125,A
00:02:42.086;B;$GPGGA,111125,5223.6253,N,01255.8558,E,1,8,1.9,21,M,45,M,,
00:02:42.196;A;$SDDPT,2.5,*7E
00:02:42.212;B;$GPVTG,,T,279.7,M,0.0,N,0.1,K
00:02:42.234;A;$SDDBT,8.4,f,2.5,M,1.4,F*08
00:02:42.277;B;$GPZDA,111125,03,05,2020,-2,0
00:02:42.302;A;$YXMTW,16.1,C*14
00:02:42.376;I;$POSMGYR,-257,-25,293*6E
00:02:42.376;I;$POSMACC,2060,676,19724*66
00:02:42.343;B;$GPRMC,111125,A,5223.6253,N,01255.8558,E,0.0,283.7,030520,4,E*66
00:02:42.995;B;$GPGLL,5223.6252,N,01255.8558,E,111126,A
00:02:43.084;B;$GPGGA,111126,5223.6252,N,01255.8558,E,1,8,1.9,21,M,45,M,,
00:02:43.193;A;$SDDPT,2.5,*7E
00:02:43.208;B;$GPVTG,,T,279.4,M,0.0,N,0.1,K
00:02:43.230;A;$SDDBT,8.4,f,2.5,M,1.4,F*08
00:02:43.271;B;$GPZDA,111126,03,05,2020,-2,0
00:02:43.297;A;$YXMTW,16.1,C*14
00:02:43.378;I;$POSMGYR,-230,-29,298*68
00:02:43.378;I;$POSMACC,2088,732,19856*6B
00:02:43.336;B;$GPRMC,111126,A,5223.6252,N,01255.8558,E,0.0,283.4,030520,4,E*67
00:02:43.998;B;$GPGLL,5223.6251,N,01255.8558,E,111127,A
00:02:44.087;B;$GPGGA,111127,5223.6251,N,01255.8558,E,1,9,1.6,21,M,45,M,,
00:02:44.195;A;$SDDPT,2.5,*7E
00:02:44.213;B;$GPVTG,,T,277.4,M,0.0,N,0.1,K
00:02:44.232;A;$SDDBT,8.4,f,2.5,M,1.4,F*08
00:02:44.277;B;$GPZDA,111127,03,05,2020,-2,0
00:02:44.300;A;$YXMTW,16.1,C*14
00:02:44.379;I;$POSMGYR,-272,-22,300*65
00:02:44.379;I;$POSMACC,2100,732,19716*61
00:02:44.343;B;$GPRMC,111127,A,5223.6251,N,01255.8558,E,0.0,281.4,030520,4,E*67
00:02:44.993;B;$GPGLL,5223.6251,N,01255.8559,E,111128,A
00:02:45.082;B;$GPGGA,111128,5223.6251,N,01255.8559,E,1,9,1.6,21,M,45,M,,
00:02:45.191;A;$SDDPT,2.5,*7E
00:02:45.208;B;$GPVTG,,T,269.2,M,0.0,N,0.0,K
00:02:45.229;A;$SDDBT,8.5,f,2.5,M,1.4,F*09
00:02:45.272;B;$GPZDA,111128,03,05,2020,-2,0
00:02:45.296;A;$YXMTW,16.1,C*14
00:02:45.379;I;$POSMGYR,-255,-5,311*55
00:02:45.379;I;$POSMACC,1932,708,19784*69
00:02:45.337;B;$GPRMC,111128,A,5223.6251,N,01255.8559,E,0.0,273.2,030520,4,E*62
00:02:45.998;B;$GPGLL,5223.6250,N,01255.8559,E,111129,A
00:02:46.087;B;$GPGGA,111129,5223.6250,N,01255.8559,E,1,9,1.6,21,M,45,M,,
00:02:46.193;A;$SDDPT,2.5,*7E
00:02:46.211;B;$GPVTG,,T,274.2,M,0.0,N,0.0,K
00:02:46.233;A;$SDDBT,8.4,f,2.5,M,1.4,F*08
00:02:46.299;A;$YXMTW,16.1,C*14
00:02:46.278;B;$GPZDA,111129,03,05,2020,-2,0
00:02:46.380;I;$POSMGYR,-239,-19,301*63
00:02:46.380;I;$POSMACC,2044,616,19776*61
00:02:46.343;B;$GPRMC,111129,A,5223.6250,N,01255.8559,E,0.0,278.2,030520,4,E*69
00:02:46.993;B;$GPGLL,5223.6250,N,01255.8560,E,111130,A
00:02:47.083;B;$GPGGA,111130,5223.6250,N,01255.8560,E,1,9,1.6,21,M,45,M,,
00:02:47.196;A;$SDDPT,2.5,*7E
00:02:47.206;B;$GPVTG,,T,265.0,M,0.0,N,0.0,K
00:02:47.234;A;$SDDBT,8.4,f,2.5,M,1.4,F*08
00:02:47.272;B;$GPZDA,111130,03,05,2020,-2,0
00:02:47.302;A;$YXMTW,16.1,C*14
00:02:47.382;I;$POSMGYR,-260,-15,298*62
00:02:47.382;I;$POSMACC,2052,804,19832*64
00:02:47.336;B;$GPRMC,111130,A,5223.6250,N,01255.8560,E,0.0,269.0,030520,4,E*69
00:02:47.999;B;$GPGLL,5223.6250,N,01255.8560,E,111131,A
00:02:48.088;B;$GPGGA,111131,5223.6250,N,01255.8560,E,1,9,1.6,21,M,45,M,,
00:02:48.194;A;$SDDPT,2.5,*7E
00:02:48.212;B;$GPVTG,,T,255.6,M,0.0,N,0.0,K
00:02:48.230;A;$SDDBT,8.4,f,2.5,M,1.4,F*08
00:02:48.297;A;$YXMTW,16.1,C*14
00:02:48.275;B;$GPZDA,111131,03,05,2020,-2,0
00:02:48.383;I;$POSMGYR,-260,1,316*7D
00:02:48.383;I;$POSMACC,1948,672,19728*6E
00:02:48.341;B;$GPRMC,111131,A,5223.6250,N,01255.8560,E,0.0,259.6,030520,4,E*6D
00:02:48.993;B;$GPGLL,5223.6249,N,01255.8560,E,111132,A
00:02:49.082;B;$GPGGA,111132,5223.6249,N,01255.8560,E,1,9,1.6,21,M,45,M,,
00:02:49.194;A;$SDDPT,2.5,*7E
00:02:49.206;B;$GPVTG,,T,255.9,M,0.0,N,0.0,K
00:02:49.232;A;$SDDBT,8.5,f,2.5,M,1.4,F*09
00:02:49.273;B;$GPZDA,111132,03,05,2020,-2,0
00:02:49.300;A;$YXMTW,16.1,C*14
00:02:49.387;I;$POSMGYR,-248,-37,292*62
00:02:49.387;I;$POSMACC,2016,720,19760*65
00:02:49.336;B;$GPRMC,111132,A,5223.6249,N,01255.8560,E,0.0,259.9,030520,4,E*69
00:02:49.999;B;$GPGLL,5223.6249,N,01255.8561,E,111133,A
00:02:50.088;B;$GPGGA,111133,5223.6249,N,01255.8561,E,1,9,1.6,21,M,45,M,,
00:02:50.191;A;$SDDPT,2.5,*7E
00:02:50.212;B;$GPVTG,,T,258.9,M,0.0,N,0.0,K
00:02:50.229;A;$SDDBT,8.4,f,2.5,M,1.4,F*08
00:02:50.295;A;$YXMTW,16.1,C*14
00:02:50.276;B;$GPZDA,111133,03,05,2020,-2,0
00:02:50.387;I;$POSMGYR,-270,-32,305*63
00:02:50.387;I;$POSMACC,2028,708,19812*68
00:02:50.341;B;$GPRMC,111133,A,5223.6249,N,01255.8561,E,0.0,262.9,030520,4,E*61
00:02:50.994;B;$GPGLL,5223.6249,N,01255.8561,E,111134,A
00:02:51.083;B;$GPGGA,111134,5223.6249,N,01255.8561,E,1,9,1.6,21,M,45,M,,
00:02:51.193;A;$SDDPT,2.5,*7E
00:02:51.207;B;$GPVTG,,T,252.7,M,0.0,N,0.0,K
00:02:51.230;A;$SDDBT,8.4,f,2.5,M,1.4,F*08
00:02:51.271;B;$GPZDA,111134,03,05,2020,-2,0
00:02:51.298;A;$YXMTW,16.1,C*14
00:02:51.388;I;$POSMGYR,-259,-2,279*51
00:02:51.388;I;$POSMACC,1968,752,19680*6C
00:02:51.338;B;$GPRMC,111134,A,5223.6249,N,01255.8561,E,0.0,256.7,030520,4,E*6F
00:02:52.000;B;$GPGLL,5223.6248,N,01255.8561,E,111135,A
00:02:52.086;B;$GPGGA,111135,5223.6248,N,01255.8561,E,1,9,1.6,21,M,45,M,,
00:02:52.196;A;$SDDPT,2.5,*7E
00:02:52.213;B;$GPVTG,,T,249.5,M,0.0,N,0.0,K
00:02:52.233;A;$SDDBT,8.4,f,2.5,M,1.4,F*08
00:02:52.276;B;$GPZDA,111135,03,05,2020,-2,0
00:02:52.300;A;$YXMTW,16.1,C*14
00:02:52.390;I;$POSMGYR,-245,-65,310*63
00:02:52.390;I;$POSMACC,1944,724,19796*65
00:02:52.342;B;$GPRMC,111135,A,5223.6248,N,01255.8561,E,0.0,253.5,030520,4,E*68
00:02:52.994;B;$GPGLL,5223.6248,N,01255.8561,E,111136,A
00:02:53.083;B;$GPGGA,111136,5223.6248,N,01255.8561,E,1,9,1.6,21,M,45,M,,
00:02:53.191;A;$SDDPT,2.5,*7E
00:02:53.207;B;$GPVTG,,T,249.8,M,0.0,N,0.0,K
00:02:53.231;A;$SDDBT,8.4,f,2.5,M,1.4,F*08
00:02:53.272;B;$GPZDA,111136,03,05,2020,-2,0
00:02:53.296;A;$YXMTW,16.1,C*14
00:02:53.391;I;$POSMGYR,-260,-33,316*61
00:02:53.391;I;$POSMACC,2116,816,19748*64
00:02:53.336;B;$GPRMC,111136,A,5223.6248,N,01255.8561,E,0.0,253.8,030520,4,E*66
00:02:53.998;B;$GPGLL,5223.6247,N,01255.8561,E,111137,A
00:02:54.087;B;$GPGGA,111137,5223.6247,N,01255.8561,E,1,9,1.6,21,M,45,M,,
00:02:54.194;A;$SDDPT,2.5,*7E
00:02:54.211;B;$GPVTG,,T,237.4,M,0.0,N,0.0,K
00:02:54.232;A;$SDDBT,8.4,f,2.5,M,1.4,F*08
00:02:54.298;A;$YXMTW,16.1,C*14
00:02:54.277;B;$GPZDA,111137,03,05,2020,-2,0
00:02:54.393;I;$POSMGYR,-271,-26,280*6B
00:02:54.393;I;$POSMACC,2032,664,19732*65
00:02:54.342;B;$GPRMC,111137,A,5223.6247,N,01255.8561,E,0.0,241.4,030520,4,E*67
00:02:54.993;B;$GPGLL,5223.6247,N,01255.8561,E,111138,A
00:02:55.081;B;$GPGGA,111138,5223.6247,N,01255.8561,E,1,9,1.6,21,M,45,M,,
00:02:55.192;A;$SDDPT,2.5,*7E
00:02:55.208;B;$GPVTG,,T,239.3,M,0.0,N,0.0,K
00:02:55.228;A;$SDDBT,8.4,f,2.5,M,1.4,F*08
00:02:55.271;B;$GPZDA,111138,03,05,2020,-2,0
00:02:55.295;A;$YXMTW,16.1,C*14
00:02:55.396;I;$POSMGYR,-253,-11,298*66
00:02:55.396;I;$POSMACC,1956,696,19776*60
00:02:55.337;B;$GPRMC,111138,A,5223.6247,N,01255.8561,E,0.0,243.3,030520,4,E*6D
00:02:55.998;B;$GPGLL,5223.6247,N,01255.8562,E,111139,A
00:02:56.088;B;$GPGGA,111139,5223.6247,N,01255.8562,E,1,9,1.6,21,M,45,M,,
00:02:56.193;A;$SDDPT,2.5,*7E
00:02:56.211;B;$GPVTG,,T,241.2,M,0.0,N,0.0,K
00:02:56.231;A;$SDDBT,8.4,f,2.5,M,1.4,F*08
00:02:56.296;A;$YXMTW,16.1,C*14
00:02:56.276;B;$GPZDA,111139,03,05,2020,-2,0
00:02:56.398;I;$POSMGYR,-273,-50,309*68
00:02:56.398;I;$POSMACC,1928,716,19856*6D
00:02:56.340;B;$GPRMC,111139,A,5223.6247,N,01255.8562,E,0.0,245.2,030520,4,E*68
00:02:56.995;B;$GPGLL,5223.6247,N,01255.8561,E,111140,A
00:02:57.083;B;$GPGGA,111140,5223.6247,N,01255.8561,E,1,9,1.6,21,M,45,M,,
00:02:57.195;A;$SDDPT,2.5,*7E
00:02:57.207;B;$GPVTG,,T,235.5,M,0.0,N,0.0,K
00:02:57.234;A;$SDDBT,8.5,f,2.5,M,1.4,F*09
00:02:57.270;B;$GPZDA,111140,03,05,2020,-2,0
00:02:57.300;A;$YXMTW,16.1,C*14
00:02:57.399;I;$POSMGYR,-255,20,297*40
00:02:57.399;I;$POSMACC,1976,692,19736*62
00:02:57.337;B;$GPRMC,111140,A,5223.6247,N,01255.8561,E,0.0,239.5,030520,4,E*69
00:02:57.997;B;$GPGLL,5223.6247,N,01255.8562,E,111141,A
00:02:58.088;B;$GPGGA,111141,5223.6247,N,01255.8562,E,1,9,1.6,21,M,45,M,,
00:02:58.191;A;$SDDPT,2.5,*7E
00:02:58.212;B;$GPVTG,,T,231.6,M,0.0,N,0.0,K
00:02:58.229;A;$SDDBT,8.5,f,2.5,M,1.4,F*09
00:02:58.295;A;$YXMTW,16.1,C*14
00:02:58.276;B;$GPZDA,111141,03,05,2020,-2,0
00:02:58.401;I;$POSMGYR,-262,-38,277*6E
00:02:58.401;I;$POSMACC,1924,604,19832*61
00:02:58.341;B;$GPRMC,111141,A,5223.6247,N,01255.8562,E,0.0,235.6,030520,4,E*64
00:02:58.993;B;$GPGLL,5223.6246,N,01255.8561,E,111142,A
00:02:59.083;B;$GPGGA,111142,5223.6246,N,01255.8561,E,1,9,1.6,21,M,45,M,,
00:02:59.192;A;$SDDPT,2.5,*7E
00:02:59.207;B;$GPVTG,,T,234.4,M,0.0,N,0.0,K
00:02:59.232;A;$SDDBT,8.5,f,2.5,M,1.4,F*09
00:02:59.271;B;$GPZDA,111142,03,05,2020,-2,0
00:02:59.299;A;$YXMTW,16.1,C*14
00:02:59.402;I;$POSMGYR,-219,-56,311*6B
00:02:59.402;I;$POSMACC,2112,748,19692*62
00:02:59.335;B;$GPRMC,111142,A,5223.6246,N,01255.8561,E,0.0,238.4,030520,4,E*6A
00:02:59.998;B;$GPGLL,5223.6246,N,01255.8562,E,111143,A
00:03:00.087;B;$GPGGA,111143,5223.6246,N,01255.8562,E,1,9,1.6,21,M,45,M,,
00:03:00.191;A;$SDDPT,2.5,*7E
00:03:00.213;B;$GPVTG,,T,239.1,M,0.0,N,0.0,K
00:03:00.228;A;$SDDBT,8.5,f,2.5,M,1.4,F*09
00:03:00.293;A;$YXMTW,16.1,C*14
00:03:00.277;B;$GPZDA,111143,03,05,2020,-2,0
00:03:00.404;I;$POSMGYR,-262,3,321*79
00:03:00.404;I;$POSMACC,1972,720,19572*6C
00:03:00.339;B;$GPRMC,111143,A,5223.6246,N,01255.8562,E,0.0,243.1,030520,4,E*61
00:03:00.994;B;$GPGLL,5223.6246,N,01255.8562,E,111144,A
00:03:01.083;B;$GPGGA,111144,5223.6246,N,01255.8562,E,1,9,1.6,21,M,45,M,,
00:03:01.192;A;$SDDPT,2.5,*7E
